,ride_id,rideable_type,started_at,ended_at,start_station_name,start_station_id,end_station_name,end_station_id,start_lat,start_lng,end_lat,end_lng,member_casual,date,avgTemp,_merge,bike_rides_daily_x,bike_rides_daily_y,bike_rides_daily
0,AC76F5E4EFDCE317,electric_bike,2022-01-02 16:20:01,2022-01-02 16:22:34,Lexington Ave & E 111 St,7567.06,E 115 St & Madison Ave,7599.02,40.7954121,-73.9441232,40.7989445,-73.944846,casual,2022-01-02,11.4,both,2,2,2
1,E121DC402DB250F1,classic_bike,2022-01-02 14:28:05,2022-01-02 14:58:12,48 St & 5 Ave,3202.06,Bond St & Bergen St,4404.1,40.646351,-74.009271,40.6849668,-73.98620772,member,2022-01-02,11.4,both,2,2,2
2,67E6F94A7B94F776,electric_bike,2022-01-03 20:11:00,2022-01-03 20:15:17,E 156 & Brook Ave,7896.11,E 161 St & Park Ave,7979.17,40.819823,-73.912411,40.824811,-73.916407,member,2022-01-03,1.4,both,1,1,1
3,441B0C0506D400C2,classic_bike,2022-01-04 12:43:34,2022-01-04 12:46:59,E 33 St & 1 Ave,6197.08,E 39 St & 2 Ave,6345.08,40.74322681432173,-73.97449783980846,40.74803319428767,-73.973827958107,casual,2022-01-04,-2.7,both,1,1,1
4,99005ACE9002E034,electric_bike,2022-01-06 23:05:29,2022-01-06 23:12:23,W 37 St & 10 Ave,6611.02,W 52 St & 11 Ave,6926.01,40.75660359,-73.9979009,40.76727216,-73.99392888,member,2022-01-06,4.9,both,3,3,3
5,D6A8D4DE749789B5,classic_bike,2022-01-06 16:12:55,2022-01-06 16:24:18,E 11 St & Avenue B,5659.11,Broadway & E 21 St,6098.1,40.72746420692392,-73.97950418293476,40.73988840858996,-73.98958593606949,member,2022-01-06,4.9,both,3,3,3
6,ECDAE6CD8B50D54F,classic_bike,2022-01-06 20:28:42,2022-01-06 20:42:59,6 Ave & Broome St,5610.09,8 Ave & W 31 St,6450.05,40.72431,-74.00473,40.7505853470215,-73.9946848154068,member,2022-01-06,4.9,both,3,3,3
7,8E4B73B9C5DE4FC1,electric_bike,2022-01-07 13:25:28,2022-01-07 13:27:57,E 33 St & 5 Ave,6322.01,W 33 St & 7 Ave,6407.07,40.74765947,-73.98490707,40.75019995,-73.99093085,member,2022-01-07,0.7,both,2,2,2
8,DF2D4CFBF8F4AC7F,classic_bike,2022-01-07 13:04:04,2022-01-07 13:18:05,Howard St & Lafayette St,5422.04,St Marks Pl & 2 Ave,5669.1,40.71910537,-73.99973337,40.7284186,-73.98713956,casual,2022-01-07,0.7,both,2,2,2
9,6FD790C64022E0FD,classic_bike,2022-01-08 14:00:00,2022-01-08 14:53:28,Columbus Ave & W 72 St,7175.05,Columbus Ave & W 72 St,7175.05,40.7770575,-73.97898475,40.7770575,-73.97898475,member,2022-01-08,-2.5,both,1,1,1
10,34A11D1AB59E0BF1,classic_bike,2022-01-10 20:39:41,2022-01-10 20:57:07,Carmine St & 6 Ave,5763.03,11 Ave & W 27 St,6425.04,40.73038599,-74.00214988,40.751396,-74.005226,member,2022-01-10,1.6,both,1,1,1
11,6E64A3CDA550E82A,electric_bike,2022-01-11 08:01:05,2022-01-11 08:06:27,E 5 St & Avenue C,5545.04,E 13 St & Avenue A,5779.09,40.72299208,-73.97995466,40.72966729392978,-73.98067966103554,member,2022-01-11,-5.4,both,1,1,1
12,0E4F634759A66AFC,classic_bike,2022-01-12 17:31:24,2022-01-12 17:44:39,E 17 St & Broadway,5980.07,10 Ave & W 14 St,6157.04,40.73704984,-73.99009296,40.74198159994023,-74.00831580162048,member,2022-01-12,-1.9,both,1,1,1
13,C6BE8D31E46D5463,classic_bike,2022-01-13 08:05:40,2022-01-13 08:21:12,E 4 St & 2 Ave,5593.04,Clinton St & Cherry St,5190.09,40.7262807,-73.98978041,40.711471394469264,-73.98672603070736,member,2022-01-13,4.0,both,2,2,2
14,5A5F6C6CA6BD07DC,electric_bike,2022-01-13 23:57:19,2022-01-14 00:05:32,Grand Army Plaza & Central Park S,6839.1,W 33 St & 7 Ave,6407.07,40.7643971,-73.97371465,40.75019995,-73.99093085,member,2022-01-13,4.0,both,2,2,2
15,AEE69B2563CB139B,classic_bike,2022-01-14 15:51:08,2022-01-14 15:55:54,E 33 St & 1 Ave,6197.08,E 39 St & 2 Ave,6345.08,40.74322681432173,-73.97449783980846,40.74803319428767,-73.973827958107,member,2022-01-14,4.8,both,2,2,2
16,E63B6D12BBBD7F6A,electric_bike,2022-01-14 19:12:14,2022-01-14 19:35:46,Market St & Cherry St,5198.04,India St & Manhattan Ave,5826.02,40.71076228,-73.99400398,40.73232194,-73.9550858,casual,2022-01-14,4.8,both,2,2,2
17,BA8C7DDA38A691FE,electric_bike,2022-01-15 10:17:34,2022-01-15 10:21:55,Watts St & Greenwich St,5578.02,Duane St & Hudson St,5359.12,40.72405549,-74.00965965,40.71703,-74.00925,member,2022-01-15,-6.7,both,1,1,1
18,2FB8BAF1C6584D7C,electric_bike,2022-01-16 07:48:42,2022-01-16 08:14:20,E 56 St & 3 Ave,6691.11,12 Ave & W 125 St,7886.02,40.75934501,-73.96759673,40.818299,-73.960405,casual,2022-01-16,-8.0,both,1,1,1
19,A91EEFA674C65529,classic_bike,2022-01-17 18:35:09,2022-01-17 18:49:20,E 7 St & Avenue A,5626.07,1 Ave & E 44 St,6379.03,40.72621788,-73.98379855,40.75001986,-73.96905301,member,2022-01-17,3.9,both,2,2,2
20,F46798606D3C8F03,classic_bike,2022-01-17 10:11:52,2022-01-17 10:16:14,Cleveland Pl & Spring St,5492.05,E 5 St & Cooper Sq,5712.12,40.722103786686034,-73.99724900722504,40.72769,-73.990993,member,2022-01-17,3.9,both,2,2,2
21,0367E662757DC19F,electric_bike,2022-01-19 07:33:25,2022-01-19 07:43:26,Suffolk St & Stanton St,5445.02,N 6 St & Bedford Ave,5379.1,40.72066442,-73.98517977,40.71745169,-73.95850939,member,2022-01-19,3.2,both,4,4,4
22,BBD0204CEAA42FCE,classic_bike,2022-01-19 17:58:24,2022-01-19 18:04:00,John St & William St,5065.04,Reade St & Broadway,5247.1,40.70862144,-74.00722156,40.71450451,-74.00562789,member,2022-01-19,3.2,both,4,4,4
23,E81E84072888DCE4,classic_bike,2022-01-19 19:18:59,2022-01-19 19:24:31,Vesey St & Church St,5216.06,North Moore St & Greenwich St,5470.12,40.71221958009051,-74.01047229766846,40.72019521437465,-74.0103006362915,member,2022-01-19,3.2,both,4,4,4
24,33CDFA38976A0E2C,electric_bike,2022-01-19 20:19:30,2022-01-19 20:24:29,E 72 St & York Ave,6889.12,E 88 St & 1 Ave,7235.13,40.76663814,-73.95348296,40.778301,-73.9488134,member,2022-01-19,3.2,both,4,4,4
25,492619105D63A9E8,classic_bike,2022-01-20 17:31:25,2022-01-20 17:40:22,5 Ave & E 103 St,7511.19,Central Park North & Adam Clayton Powell Blvd,7617.07,40.7922553,-73.95249933,40.799484,-73.955613,member,2022-01-20,5.1,both,1,1,1
26,721A059DD0F9E34D,electric_bike,2022-01-21 13:50:07,2022-01-21 14:01:37,38 Ave & 29 St,6538.11,9 St & 44 Rd,6361.03,40.75473,-73.93367,40.74966,-73.9521,casual,2022-01-21,-6.0,both,3,3,3
27,0B9C2C4AF59AFB85,electric_bike,2022-01-21 06:59:02,2022-01-21 07:00:54,Willoughby St & Ashland Pl,4587.02,DeKalb Ave & Hudson Ave,4513.06,40.69178,-73.97877,40.689888,-73.981013,member,2022-01-21,-6.0,both,3,3,3
28,0312C6685131759C,classic_bike,2022-01-21 18:36:07,2022-01-21 18:46:02,MacDougal St & Washington Sq,5797.01,Mott St & Prince St,5561.04,40.73226398,-73.99852205,40.72317958,-73.99480012,casual,2022-01-21,-6.0,both,3,3,3
29,999B6C20F46AFA74,classic_bike,2022-01-23 15:49:29,2022-01-23 15:56:11,Bank St & Hudson St,5922.08,4 Ave & E 12 St,5788.15,40.73652889,-74.00618026,40.732647,-73.99011,member,2022-01-23,-0.7,both,1,1,1
30,C99B53E38E2FFBF9,electric_bike,2022-01-24 09:50:39,2022-01-24 09:54:29,E 14 St & 1 Ave,5779.1,E 27 St & 1 Ave,6004.06,40.73139303364151,-73.98286700248718,40.739445,-73.976806,member,2022-01-24,-0.2,both,1,1,1
31,3E376FEA1BEA66A0,electric_bike,2022-01-25 15:25:23,2022-01-25 15:27:36,Washington Square E,5755.09,University Pl & E 14 St,5905.14,40.73049393,-73.9957214,40.734814,-73.992085,member,2022-01-25,3.6,both,4,4,4
32,903B80A01D66C378,electric_bike,2022-01-25 07:47:34,2022-01-25 07:54:15,W 33 St & 7 Ave,6407.07,W 15 St & 6 Ave,5989.02,40.75019995,-73.99093085,40.738046142482766,-73.99642959237099,member,2022-01-25,3.6,both,4,4,4
33,466827BB200A1E1E,electric_bike,2022-01-25 17:45:42,2022-01-25 17:54:19,W 52 St & 6 Ave,6740.01,Columbus Ave & W 72 St,7175.05,40.76132983124814,-73.97982001304626,40.7770575,-73.97898475,member,2022-01-25,3.6,both,4,4,4
34,D838B08D2E02AF4E,electric_bike,2022-01-25 07:03:38,2022-01-25 07:10:20,Fort Washington Ave & W 183 St,8399.06,Audubon Ave & Fort George Ave,8491.07,40.852252,-73.937854,40.85715781391904,-73.92717361450195,casual,2022-01-25,3.6,both,4,4,4
35,29862ED61DC7B39B,classic_bike,2022-01-27 19:15:29,2022-01-27 19:21:57,2 Ave & E 29 St,6122.09,Broadway & W 29 St,6289.06,40.74172351097472,-73.97809267044067,40.7462009,-73.98855723,casual,2022-01-27,-4.2,both,1,1,1
36,FFE8972349992349,classic_bike,2022-01-28 19:02:20,2022-01-28 19:06:40,5 St & Market St,4843.01,Sands St & Jay St,4821.03,40.6999974843885,-73.97440128028393,40.700119,-73.9862,member,2022-01-28,0.1,both,2,2,2
37,17289BD8FC2ABCA9,electric_bike,2022-01-28 14:25:10,2022-01-28 14:47:15,Amsterdam Ave & W 73 St,7260.09,E 84 St & 1 Ave,7180.02,40.77966809007312,-73.98093044757842,40.77565541,-73.95068615,member,2022-01-28,0.1,both,2,2,2
38,EDEE245D020A1E2D,classic_bike,2022-01-29 16:42:42,2022-01-29 16:57:32,E 11 St & Avenue B,5659.11,W 31 St & 7 Ave,6331.01,40.72746420692392,-73.97950418293476,40.749156,-73.9916,member,2022-01-29,-4.8,both,1,1,1
39,C7AB9757DD6DD483,electric_bike,2022-01-31 19:29:59,2022-01-31 19:35:42,E 47 St & 1 Ave,6498.09,1 Ave & E 62 St,6753.08,40.75206862,-73.96784384,40.7612274,-73.96094022,member,2022-01-31,-3.4,both,1,1,1
40,176498076AC2E4E5,electric_bike,2022-02-01 08:03:25,2022-02-01 08:09:57,Spruce St & Nassau St,5137.1,W Broadway & W Houston St,5644.05,40.71146364,-74.00552427,40.726378,-74.000472,member,2022-02-01,-1.7,both,4,4,4
41,46C3AF6F8C27E081,electric_bike,2022-02-01 10:32:22,2022-02-01 10:40:05,Vesey St & Church St,5216.06,West Thames St,5114.06,40.71221958009051,-74.01047229766846,40.70834698,-74.01713445,member,2022-02-01,-1.7,both,4,4,4
42,0A80364528040678,classic_bike,2022-02-01 08:43:11,2022-02-01 08:55:00,E 14 St & Avenue B,5736.09,Washington Pl & Broadway,5755.01,40.72938685,-73.97772429,40.72903917,-73.99404649,member,2022-02-01,-1.7,both,4,4,4
43,9313E1E4F0061611,classic_bike,2022-02-01 08:07:18,2022-02-01 08:52:47,Spruce St & Gold St,5137.13,1 Ave & E 68 St,6822.09,40.7103231,-74.0043228,40.76500525,-73.95818491,member,2022-02-01,-1.7,both,4,4,4
44,0E2561FA6878720E,electric_bike,2022-02-03 08:02:08,2022-02-03 08:14:45,Kane St & Clinton St,4455.11,Berkeley Pl & 7 Ave,4051.01,40.6861758,-73.99645295,40.675146838709786,-73.97523209452629,member,2022-02-03,6.4,both,1,1,1
45,E2C7C9851F6E63C9,electric_bike,2022-02-04 12:50:38,2022-02-04 12:58:07,E 50 St & Park Ave,6659.1,W 33 St & 7 Ave,6407.07,40.757334,-73.974235,40.75019995,-73.99093085,member,2022-02-04,5.8,both,1,1,1
46,FCD0D85B4D8BBEC1,classic_bike,2022-02-07 07:43:29,2022-02-07 08:15:52,DeKalb Ave & Franklin Ave,4528.01,E 9 St & 5 Ave,5872.1,40.69064807082943,-73.95746178925037,40.73275887045087,-73.99581670761108,member,2022-02-07,0.5,both,1,1,1
47,A4B283C64DDD5866,classic_bike,2022-02-08 17:52:40,2022-02-08 17:57:40,E 81 St & 2 Ave,7121.05,E 89 St & 3 Ave,7265.1,40.77477944895728,-73.95427465438843,40.7806284,-73.9521667,member,2022-02-08,4.1,both,2,2,2
48,9AB6EFA2C43A1976,classic_bike,2022-02-08 17:44:43,2022-02-08 17:52:52,E 16 St & 5 Ave,6022.04,Cleveland Pl & Spring St,5492.05,40.73726186,-73.99238967,40.722103786686034,-73.99724900722504,member,2022-02-08,4.1,both,2,2,2
49,A5B04B21882CF41A,electric_bike,2022-02-10 08:53:35,2022-02-10 09:11:05,Engert Ave & McGuinness Blvd,5473.03,Clermont Ave & Park Ave,4692.01,40.72158,-73.94546,40.69573398,-73.97129668,member,2022-02-10,6.3,both,1,1,1
50,03C90E1DC714DF44,electric_bike,2022-02-11 18:21:56,2022-02-11 18:34:13,Grove St & Broadway,4526.01,S 5 Pl & S 5 St,5125.03,40.69047,-73.923511,40.710451,-73.960876,member,2022-02-11,8.6,both,2,2,2
51,6151EBD516892B9E,classic_bike,2022-02-11 22:58:49,2022-02-11 23:09:58,Grand St & Greene St,5500.02,Allen St & Rivington St,5414.06,40.72170005235607,-74.00238141417502,40.72019576,-73.98997825,member,2022-02-11,8.6,both,2,2,2
52,1823FB100704CE68,classic_bike,2022-02-12 03:25:24,2022-02-12 03:45:39,Graham Ave & Grand St,5178.06,Stanton St & Norfolk St,5445.07,40.711863,-73.944024,40.720747,-73.986274,member,2022-02-12,11.8,both,1,1,1
53,7C8BD5075AB1C2FC,electric_bike,2022-02-13 20:28:08,2022-02-13 20:29:56,Metropolitan Ave & Meeker Ave,5300.05,Grand St & Havemeyer St,5267.08,40.71413311,-73.95234386,40.71286844,-73.95698119,member,2022-02-13,2.8,both,1,1,1
54,8A6BA6DD077D068D,classic_bike,2022-02-15 18:01:04,2022-02-15 18:07:36,W 56 St & 6 Ave,6809.07,Broadway & W 61 St,7014.12,40.76340613,-73.97722479,40.77003010255044,-73.9819684624672,member,2022-02-15,-4.7,both,1,1,1
55,1AC43873E21A3D70,classic_bike,2022-02-16 15:31:58,2022-02-16 15:41:48,5 Ave & E 72 St,7100.07,Broadway & W 53 St,6779.05,40.77282817,-73.96685276,40.76344058,-73.98268129,member,2022-02-16,1.6,both,1,1,1
56,C150EC2C443B005C,classic_bike,2022-02-17 09:30:41,2022-02-17 09:35:07,1 Ave & E 78 St,7020.09,E 88 St & 1 Ave,7235.13,40.77140426,-73.9535166,40.778301,-73.9488134,member,2022-02-17,11.6,both,3,3,3
57,E4F7BA18A7BDA002,electric_bike,2022-02-17 09:25:02,2022-02-17 09:47:42,E 85 St & 3 Ave,7212.05,W 30 St & 10 Ave,6459.07,40.77801203,-73.95407149,40.752694,-74.002353,member,2022-02-17,11.6,both,3,3,3
58,DC76EC9F93F63BBE,classic_bike,2022-02-17 07:29:47,2022-02-17 07:39:04,E 85 St & 3 Ave,7212.05,E 106 St & 1 Ave,7456.03,40.77801203,-73.95407149,40.7892529,-73.93956237,member,2022-02-17,11.6,both,3,3,3
59,D6F4D468C3181013,classic_bike,2022-02-20 11:17:05,2022-02-20 11:31:18,Stanton St & Chrystie St,5523.02,Bayard St & Baxter St,5351.03,40.72229346,-73.99147535,40.71602118,-73.99974372,member,2022-02-20,-2.6,both,1,1,1
60,A5A1D07017371506,electric_bike,2022-02-22 08:28:26,2022-02-22 09:22:08,Central Park West & W 85 St,7354.01,Broadway & W 61 St,7014.12,40.78476,-73.969862,40.77003010255044,-73.9819684624672,casual,2022-02-22,5.6,both,1,1,1
61,5932E41A99119CAF,electric_bike,2022-02-23 19:20:19,2022-02-23 19:24:34,W 50 St & 9 Ave,6854.05,11 Ave & W 59 St,7059.01,40.76360467795863,-73.98917958140373,40.77149671054441,-73.99046033620834,member,2022-02-23,14.4,both,2,2,2
62,16097E268765C6F7,electric_bike,2022-02-23 18:36:08,2022-02-23 18:43:08,Creston Ave & E 181 St,8456.02,Walton Ave & E 171 St,8249.1,40.8549,-73.90281,40.840683,-73.915073,member,2022-02-23,14.4,both,2,2,2
63,3A54E0B547B0CC09,classic_bike,2022-02-24 08:32:22,2022-02-24 08:36:03,Bedford Ave & Bergen St,4066.15,Grand Ave & Bergen St,4190.06,40.676368,-73.952918,40.678045,-73.962408,member,2022-02-24,1.1,both,1,1,1
64,8635EF4503AF98C5,classic_bike,2022-02-25 17:26:39,2022-02-25 18:01:03,Washington Pl & 6 Ave,5838.09,Warren St & Court St,4413.08,40.73224119,-74.00026394,40.686371,-73.99383324,member,2022-02-25,0.8,both,1,1,1
65,3BBABCFD41AE713C,classic_bike,2022-02-26 16:48:54,2022-02-26 16:56:01,E 5 St & Ave A,5626.06,Mott St & Prince St,5561.04,40.72479007746337,-73.98430064320564,40.72317958,-73.99480012,member,2022-02-26,-1.1,both,2,2,2
66,D84AF1B44CD6110B,electric_bike,2022-02-26 08:01:53,2022-02-26 08:06:45,2 Ave & E 29 St,6122.09,5 Ave & E 29 St,6248.06,40.74172351097472,-73.97809267044067,40.7451677,-73.98683077,member,2022-02-26,-1.1,both,2,2,2
67,FD7CA1E13E3ACF73,classic_bike,2022-03-01 09:08:57,2022-03-01 09:36:55,Huron St & Franklin St,5869.04,Bridge St & York St,4853.06,40.73266,-73.95826,40.70133448066992,-73.98471236228943,member,2022-03-01,2.6,both,1,1,1
68,AF1343EC9FAC296B,electric_bike,2022-03-02 07:38:42,2022-03-02 07:49:01,University Pl & E 14 St,5905.14,1 Ave & E 30 St,6079.03,40.734814,-73.992085,40.74144387,-73.97536082,member,2022-03-02,7.7,both,1,1,1
69,ABDE1552E823A903,electric_bike,2022-03-04 16:06:20,2022-03-04 16:19:38,Vesey St & Church St,5216.06,Clinton St & Grand St,5303.06,40.71221958009051,-74.01047229766846,40.71559509,-73.9870295,member,2022-03-04,-1.9,both,2,2,2
70,2AABA2631AFF60E4,electric_bike,2022-03-04 15:43:46,2022-03-04 15:59:58,East End Ave & E 86 St,7113.08,E 39 St & 2 Ave,6345.08,40.77518615,-73.94446054,40.74803319428767,-73.973827958107,member,2022-03-04,-1.9,both,2,2,2
71,29BD67189BE0C336,electric_bike,2022-03-05 00:47:55,2022-03-05 00:51:32,E 1 St & 1 Ave,5593.01,E 2 St & Avenue C,5476.03,40.72335597960796,-73.98864984512329,40.7208736,-73.98085795,member,2022-03-05,3.1,both,2,2,2
72,6C7E16C152BB35B9,classic_bike,2022-03-05 21:31:30,2022-03-05 21:45:52,Central Park West & W 85 St,7354.01,Adam Clayton Powell Blvd & W 130 St,7774.02,40.78476,-73.969862,40.812346,-73.946168,casual,2022-03-05,3.1,both,2,2,2
73,544AB2ED81C37C90,electric_bike,2022-03-07 16:09:17,2022-03-07 16:52:30,Nagle Ave & Thayer St,8563.06,Nagle Ave & Thayer St,8563.06,40.861382,-73.925591,40.861382,-73.925591,member,2022-03-07,18.2,both,2,2,2
74,60AF645F23D0562C,electric_bike,2022-03-07 12:51:29,2022-03-07 12:57:12,Riverside Dr & Broadway,8616.06,Broadway & W 185 St,8416.07,40.865364,-73.92791,40.852538,-73.93441,member,2022-03-07,18.2,both,2,2,2
75,31F3E41C307EDDE7,electric_bike,2022-03-08 08:19:17,2022-03-08 08:28:10,Park Ave & E 124 St,7682.01,5 Ave & E 103 St,7511.19,40.8045555,-73.9396861,40.7922553,-73.95249933,member,2022-03-08,8.7,both,4,4,4
76,7814E045F91A1F70,classic_bike,2022-03-08 16:11:16,2022-03-08 16:16:20,Eastern Pkwy & Washington Ave,3928.08,Sterling Pl & Bedford Ave,3993.03,40.6716493,-73.9631145,40.672695,-73.954131,member,2022-03-08,8.7,both,4,4,4
77,BF3D0101D5881FC0,classic_bike,2022-03-08 21:49:25,2022-03-08 22:07:31,West Thames St,5114.06,Albany St & Greenwich St,5145.02,40.70834698,-74.01713445,40.709267,-74.013247,member,2022-03-08,8.7,both,4,4,4
78,7001E1156D88B8FD,classic_bike,2022-03-08 17:59:10,2022-03-08 18:10:20,Hudson St & W 13 St,6115.06,Stanton St & Chrystie St,5523.02,40.74005708567285,-74.0052741765976,40.72229346,-73.99147535,member,2022-03-08,8.7,both,4,4,4
79,BDB631D0982E6D40,electric_bike,2022-03-09 08:04:17,2022-03-09 08:19:44,Madison St & Montgomery St,5262.09,Kent Ave & N 7 St,5489.03,40.713126,-73.984844,40.72036775298455,-73.96165072917938,member,2022-03-09,3.2,both,2,2,2
80,D60C08D4E7C2D93D,electric_bike,2022-03-09 09:22:44,2022-03-09 09:28:15,Christopher St & Greenwich St,5847.01,6 Ave & Broome St,5610.09,40.73291553,-74.00711384,40.72431,-74.00473,member,2022-03-09,3.2,both,2,2,2
81,BA71508D64D234A6,electric_bike,2022-03-10 07:14:20,2022-03-10 07:14:54,Central Park West & W 72 St,7141.07,Central Park West & W 72 St,7141.07,40.77579376683666,-73.9762057363987,40.77579376683666,-73.9762057363987,member,2022-03-10,4.0,both,5,5,5
82,9097996B0FEA06E5,classic_bike,2022-03-10 17:28:51,2022-03-10 17:35:09,West End Ave & W 78 St,7340.07,W 64 St & Thelonious Monk Circle,7123.04,40.783786,-73.981687,40.77515953434235,-73.98918695747852,member,2022-03-10,4.0,both,5,5,5
83,87139B2C6B59A24E,electric_bike,2022-03-10 08:47:16,2022-03-10 08:56:34,W 21 St & 6 Ave,6140.05,10 Ave & W 28 St,6459.04,40.74173969,-73.99415556,40.75066386,-74.00176802,member,2022-03-10,4.0,both,5,5,5
84,10CE81A8E631687F,electric_bike,2022-03-10 23:31:42,2022-03-10 23:47:27,Knickerbocker Ave & George St,4979.07,Green St & McGuinness Blvd,5860.02,40.704425,-73.92836,40.73396,-73.95204,casual,2022-03-10,4.0,both,5,5,5
85,998BB382BC4F6BDC,electric_bike,2022-03-10 17:27:18,2022-03-10 17:30:18,Stagg St & Union Ave,5117.05,Stagg St & Union Ave,5117.05,40.70877084,-73.95095259,40.70877084,-73.95095259,member,2022-03-10,4.0,both,5,5,5
86,771BC466C0A15C82,electric_bike,2022-03-11 13:57:55,2022-03-11 14:05:58,7 Ave S & Bleecker St,5805.07,Greenwich Ave & 8 Ave,6072.06,40.73213896287381,-74.00363802909851,40.7390169121,-74.0026376103,member,2022-03-11,7.2,both,5,5,5
87,986F705BA85C9961,electric_bike,2022-03-11 15:46:58,2022-03-11 15:59:31,62 St & 4 Ave,2923.01,30 St & 4 Ave,3564.04,40.639859,-74.019776,40.657743,-74.001141,casual,2022-03-11,7.2,both,5,5,5
88,94CAE16E993CBC3B,electric_bike,2022-03-11 06:38:42,2022-03-11 06:45:49,Central Park West & W 76 St,7253.04,W 50 St & 9 Ave,6854.05,40.77896784,-73.97374737,40.76360467795863,-73.98917958140373,member,2022-03-11,7.2,both,5,5,5
89,A86FF75E27B1C4DD,classic_bike,2022-03-11 11:28:01,2022-03-11 11:30:19,University Pl & E 8 St,5755.14,MacDougal St & Washington Sq,5797.01,40.73143724085228,-73.99490341544151,40.73226398,-73.99852205,member,2022-03-11,7.2,both,5,5,5
90,3091DE7989441268,classic_bike,2022-03-11 12:28:51,2022-03-11 12:35:28,Cherry St,5181.04,Pitt St & Stanton St,5406.04,40.71219906,-73.97948148,40.71926081,-73.98178024,member,2022-03-11,7.2,both,5,5,5
91,90432B7B6D2A5426,electric_bike,2022-03-12 20:58:29,2022-03-12 21:05:07,E 97 St & Madison Ave,7393.09,Central Park W & W 103 St,7577.27,40.787801,-73.953559,40.79558954105342,-73.96188408136368,member,2022-03-12,5.1,both,2,2,2
92,3577154A15CACCD9,classic_bike,2022-03-12 17:58:27,2022-03-12 18:02:03,W 110 St & Amsterdam Ave,7646.04,W 110 St & Amsterdam Ave,7646.04,40.802692,-73.96295,40.802692,-73.96295,casual,2022-03-12,5.1,both,2,2,2
93,8F72E2C40ACB9CA0,electric_bike,2022-03-13 14:55:08,2022-03-13 15:10:33,W 87 St & Amsterdam Ave,7458.03,6 Ave & W 45 St,6593.15,40.78839,-73.9747,40.756951,-73.982631,member,2022-03-13,-2.3,both,2,2,2
94,910957057DCDFD56,electric_bike,2022-03-13 04:45:32,2022-03-13 05:00:04,Central Park West & W 68 St,7079.06,Lexington Ave & E 26 St,6089.08,40.7734066,-73.97782542,40.741459,-73.983293,member,2022-03-13,-2.3,both,2,2,2
95,ECD2EB343F0F55FA,electric_bike,2022-03-14 07:18:39,2022-03-14 07:25:49,Park Ave & E 124 St,7682.01,W 135 St & Lenox Terrace Pl,7832.04,40.8045555,-73.9396861,40.813619,-73.939336,member,2022-03-14,5.3,both,1,1,1
96,755F3CD6D2D36309,electric_bike,2022-03-17 18:08:09,2022-03-17 18:14:01,2 Ave & E 29 St,6122.09,W 31 St & 7 Ave,6331.01,40.74172351097472,-73.97809267044067,40.749156,-73.9916,member,2022-03-17,8.2,both,2,2,2
97,284B236B1956B789,classic_bike,2022-03-17 18:42:08,2022-03-17 18:58:26,Broadway & W 25 St,6173.08,St Marks Pl & 2 Ave,5669.1,40.74286877312112,-73.98918628692627,40.7284186,-73.98713956,member,2022-03-17,8.2,both,2,2,2
98,F5DF3705A3AD1AC7,electric_bike,2022-03-18 18:17:08,2022-03-18 18:17:37,Huron St & Franklin St,5869.04,Huron St & Franklin St,5869.04,40.73266,-73.95826,40.73266,-73.95826,member,2022-03-18,13.9,both,1,1,1
99,937E53443C320BEA,electric_bike,2022-03-19 09:35:52,2022-03-19 10:55:05,W 116 St & Broadway,7713.11,Knickerbocker Ave & Thames St,5018.06,40.8082,-73.9641,40.70539,-73.92976,casual,2022-03-19,13.1,both,3,3,3
100,F024495301E88C86,classic_bike,2022-03-19 14:01:26,2022-03-19 14:26:54,W 37 St & 5 Ave,6398.06,E 6 St & 2 Ave,5669.12,40.75038009,-73.98338988,40.72737869323223,-73.98840844631195,casual,2022-03-19,13.1,both,3,3,3
101,352809585BA0D6FC,classic_bike,2022-03-19 11:02:54,2022-03-19 11:51:02,W 30 St & 10 Ave,6459.07,Myrtle Ave & Marcy Ave,4707.03,40.752694,-74.002353,40.69539817,-73.94954908,member,2022-03-19,13.1,both,3,3,3
102,E2AA5178F1DE36DB,classic_bike,2022-03-22 12:40:55,2022-03-22 13:19:58,Ave A & E 14 St,5779.11,Broadway & E 14 St,5905.12,40.73031071000895,-73.98047178983688,40.73454567,-73.99074142,member,2022-03-22,10.7,both,3,3,3
103,2C19E9949842519F,electric_bike,2022-03-22 07:17:42,2022-03-22 07:25:05,Grand Ave & W 181 St,8500.01,W 225 St & Exterior St,8711.02,40.856302,-73.907302,40.873265,-73.906646,member,2022-03-22,10.7,both,3,3,3
104,A8E2B3665AC1BEB2,electric_bike,2022-03-22 21:32:22,2022-03-22 21:40:48,Greenwich Ave & Charles St,5914.08,E 9 St & Avenue C,5616.01,40.735238,-74.000271,40.72521311,-73.97768752,member,2022-03-22,10.7,both,3,3,3
105,DFF117CBD24839D9,classic_bike,2022-03-23 18:09:07,2022-03-23 18:12:57,4 Ave & 9 St,3955.05,President St & 4 Ave,4101.17,40.6705135,-73.98876585,40.676757,-73.983262,member,2022-03-23,7.2,both,2,2,2
106,5DF86014CD61C8EC,electric_bike,2022-03-23 08:20:06,2022-03-23 08:22:33,Washington Ave & Park Ave,4724.03,Clinton Ave & Flushing Ave,4762.04,40.69610226,-73.96751037,40.69794,-73.96986848,member,2022-03-23,7.2,both,2,2,2
107,8EDC42471A66A0B3,electric_bike,2022-03-24 18:17:02,2022-03-24 18:17:45,Broadway & W 53 St,6779.05,Broadway & W 53 St,6779.05,40.76344058,-73.98268129,40.76344058,-73.98268129,member,2022-03-24,5.7,both,1,1,1
108,B9BAC11C943C1B2B,electric_bike,2022-03-25 17:23:15,2022-03-25 17:23:22,West End Ave & W 78 St,7340.07,West End Ave & W 78 St,7340.07,40.783786,-73.981687,40.783786,-73.981687,member,2022-03-25,9.6,both,5,5,5
109,1F4C47198AD7CDD0,classic_bike,2022-03-25 11:49:55,2022-03-25 11:58:55,W 50 St & 10 Ave,6890.06,Broadway & W 41 St,6560.01,40.76473420006519,-73.99194359779358,40.75513557,-73.98658032,casual,2022-03-25,9.6,both,5,5,5
110,A438C6458C092360,classic_bike,2022-03-25 09:27:43,2022-03-25 09:43:17,12 Ave & W 40 St,6765.01,W 15 St & 6 Ave,5989.02,40.76087502,-74.00277668,40.738046142482766,-73.99642959237099,member,2022-03-25,9.6,both,5,5,5
111,621E006392EFFB8B,classic_bike,2022-03-25 20:08:47,2022-03-25 20:22:20,Jefferson St & Cypress Ave,5082.08,Cypress Ave & Palmetto St,4921.04,40.70907,-73.92157,40.70157340873792,-73.90876293182373,casual,2022-03-25,9.6,both,5,5,5
112,6252A3E06D6AAD96,electric_bike,2022-03-25 11:57:17,2022-03-25 12:19:26,8 Ave & W 16 St,6072.11,West St & Chambers St,5329.03,40.740983,-74.001702,40.71754834,-74.01322069,casual,2022-03-25,9.6,both,5,5,5
113,2F11CC039B62E306,classic_bike,2022-03-26 08:09:29,2022-03-26 08:12:44,Carlton Ave & Dean St,4199.12,Atlantic Ave & Fort Greene Pl,4354.07,40.6809741,-73.9710097,40.68382604,-73.97632328,member,2022-03-26,10.4,both,2,2,2
114,A6A19B45083A2D62,electric_bike,2022-03-26 14:36:54,2022-03-26 14:45:07,Amsterdam Ave & W 79 St,7311.02,Cathedral Pkwy & Broadway,7680.03,40.7829391,-73.9786517,40.804213,-73.96699104,member,2022-03-26,10.4,both,2,2,2
115,4679C9AC0DFBF0F8,classic_bike,2022-03-28 21:19:21,2022-03-28 21:29:43,Sullivan St & Washington Sq,5721.01,Bank St & Washington St,5964.01,40.73047747,-73.99906065,40.7361967,-74.00859207,member,2022-03-28,-1.5,both,2,2,2
116,BCC785A4C0106C37,electric_bike,2022-03-28 20:51:29,2022-03-28 20:55:41,Park Ave & Marcus Garvey Blvd,4768.02,Kosciuszko St & Tompkins Ave,4553.04,40.698617,-73.941342,40.69128258,-73.9452416,member,2022-03-28,-1.5,both,2,2,2
117,90CC5B79D5FE8FDD,electric_bike,2022-03-29 22:59:54,2022-03-29 23:07:10,Amsterdam Ave & W 73 St,7260.09,W 50 St & 9 Ave,6854.05,40.77966809007312,-73.98093044757842,40.76360467795863,-73.98917958140373,member,2022-03-29,-1.2,both,1,1,1
118,FDB2826E839F37BE,classic_bike,2022-03-30 10:27:48,2022-03-30 10:28:38,Hudson Blvd E & W 36 St,6611.05,W 37 St & 10 Ave,6611.02,40.75630628938069,-73.99951145061095,40.75660359,-73.9979009,member,2022-03-30,2.6,both,2,2,2
119,AA5DDE2134C4C47B,classic_bike,2022-03-30 08:06:10,2022-03-30 08:13:12,E 2 St & Avenue A,5553.1,E 9 St & 5 Ave,5872.1,40.72307749068673,-73.98583620786667,40.73275887045087,-73.99581670761108,member,2022-03-30,2.6,both,2,2,2
120,958E7075E29FCC51,electric_bike,2022-03-31 20:48:19,2022-03-31 21:02:26,Columbus Ave & W 95 St,7520.07,Lexington Ave & E 127 St,7662.13,40.7919557,-73.968087,40.805726,-73.936322,member,2022-03-31,9.9,both,3,3,3
121,AD66D9B4E05B0E6B,classic_bike,2022-03-31 11:26:35,2022-03-31 11:30:47,Christopher St & Greenwich St,5847.01,Washington St & Gansevoort St,6039.06,40.73291553,-74.00711384,40.739323,-74.008119,member,2022-03-31,9.9,both,3,3,3
122,7FDF5AD0C48A7E04,electric_bike,2022-03-31 17:37:34,2022-03-31 17:43:25,5 Ave & 3 St,3987.06,3 St & Prospect Park West,3865.05,40.6728155,-73.98352355,40.668132,-73.97363831,member,2022-03-31,9.9,both,3,3,3
123,B831690106F78D6C,classic_bike,2022-04-01 16:19:23,2022-04-01 16:28:58,Montrose Ave & Bushwick Ave,5068.02,Leonard St & Maujer St,5148.03,40.70767788,-73.94016171,40.7103685423523,-73.94705951213837,casual,2022-04-01,13.1,both,2,2,2
124,C898D3B933A93ADC,electric_bike,2022-04-01 21:35:45,2022-04-01 21:40:57,E 3 St & 1 Ave,5553.03,E 12 St & 3 Ave,5788.12,40.72467721,-73.98783413,40.73223272,-73.98889957,member,2022-04-01,13.1,both,2,2,2
125,501AE04729BFE239,electric_bike,2022-04-02 14:49:42,2022-04-02 14:55:01,N 11 St & Kent Ave,5489.04,India St Pier,5794.05,40.72248188638219,-73.95921930670738,40.731734785883454,-73.9612390102593,casual,2022-04-02,7.2,both,1,1,1
126,892B4BF7293BC7AC,classic_bike,2022-04-03 10:49:27,2022-04-03 11:13:02,Nassau St & Navy St,4812.02,Kent Ave & N 7 St,5489.03,40.69839895,-73.98068914,40.72036775298455,-73.96165072917938,casual,2022-04-03,7.0,both,1,1,1
127,75B2DA86086A7C61,electric_bike,2022-04-04 09:39:48,2022-04-04 09:41:18,W 22 St & 10 Ave,6306.06,W 22 St & 8 Ave,6224.03,40.74691959,-74.00451887,40.74475148,-73.99915362,member,2022-04-04,7.6,both,1,1,1
128,D214488E49DBD778,classic_bike,2022-04-05 17:09:39,2022-04-05 17:26:41,2 Ave & E 31 St,6197.02,Reade St & Broadway,5247.1,40.74290902,-73.97706058,40.71450451,-74.00562789,member,2022-04-05,9.7,both,4,4,4
129,000F734512ADF648,classic_bike,2022-04-05 09:35:56,2022-04-05 09:36:24,W 31 St & 7 Ave,6331.01,W 31 St & 7 Ave,6331.01,40.749156,-73.9916,40.749156,-73.9916,member,2022-04-05,9.7,both,4,4,4
130,791F2A341F168F13,classic_bike,2022-04-05 13:46:49,2022-04-05 14:02:43,10 Ave & W 14 St,6157.04,Lafayette St & Jersey St,5561.06,40.74198159994023,-74.00831580162048,40.72456089,-73.99565293,casual,2022-04-05,9.7,both,4,4,4
131,3AB8C2EF03534594,classic_bike,2022-04-05 14:02:00,2022-04-05 14:12:35,W 15 St & 6 Ave,5989.02,Cooper Square & Astor Pl,5712.03,40.738046142482766,-73.99642959237099,40.72951496224949,-73.99075269699097,member,2022-04-05,9.7,both,4,4,4
132,88F9C7931E048542,electric_bike,2022-04-06 15:29:16,2022-04-06 15:36:58,Pearl St & Peck Slip,5096.11,Grand St & Samuel Dickstein Plaza,5335.07,40.708485,-74.002751,40.71511871996496,-73.98417055606842,member,2022-04-06,8.6,both,2,2,2
133,C1BC62277C955E88,electric_bike,2022-04-06 11:54:07,2022-04-06 11:59:56,Hanson Pl & Ashland Pl,4395.07,Adelphi St & Myrtle Ave,4620.02,40.68506807308177,-73.97790759801863,40.69308257,-73.97178913,member,2022-04-06,8.6,both,2,2,2
134,19DA8BF4EF75D0CE,classic_bike,2022-04-07 08:44:10,2022-04-07 08:49:54,W 64 St & Thelonious Monk Circle,7123.04,W 70 St & Amsterdam Ave,7207.08,40.77515953434235,-73.98918695747852,40.77748046,-73.98288594,member,2022-04-07,9.1,both,3,3,3
135,BC37E542774AE604,classic_bike,2022-04-07 22:15:14,2022-04-07 22:27:36,Broadway & W 53 St,6779.05,9 Ave & W 45 St,6717.06,40.76344058,-73.98268129,40.76019252,-73.9912551,casual,2022-04-07,9.1,both,3,3,3
136,46CF829CA4ACF1ED,classic_bike,2022-04-07 15:36:02,2022-04-07 15:39:12,E 11 St & 1 Ave,5746.14,E 7 St & Avenue A,5626.07,40.72953837,-73.98426726,40.72621788,-73.98379855,member,2022-04-07,9.1,both,3,3,3
137,016E3459A48EE2F5,classic_bike,2022-04-08 17:41:20,2022-04-08 18:36:05,E 6 St & Avenue B,5584.04,Kent Ave & Division Ave,5021.05,40.72453734,-73.98185424,40.706563674670925,-73.9683187007904,casual,2022-04-08,12.8,both,3,3,3
138,C58E508EBB4F3BCD,electric_bike,2022-04-08 07:16:47,2022-04-08 07:39:54,21 St & 23 Ave,7210.07,E 47 St & Park Ave,6584.12,40.778557,-73.919046,40.75510267,-73.97498696,member,2022-04-08,12.8,both,3,3,3
139,A42AC0AA48EAB2D3,electric_bike,2022-04-08 18:34:33,2022-04-08 19:02:32,E 6 St & Avenue B,5584.04,21 St & 43 Ave,6395.01,40.72453734,-73.98185424,40.75052534,-73.94594845,member,2022-04-08,12.8,both,3,3,3
140,2D7A8801AF9E87EA,classic_bike,2022-04-09 16:32:32,2022-04-09 16:43:41,Great Jones St,5636.11,Orchard St & Grand St,5343.11,40.72743423,-73.99379025,40.717318403855785,-73.99067759513855,casual,2022-04-09,11.4,both,2,2,2
141,9DD4E09FA1DF4B6A,electric_bike,2022-04-09 11:37:23,2022-04-09 11:51:31,W 64 St & Thelonious Monk Circle,7123.04,W 44 St & 5 Ave,6551.02,40.77515953434235,-73.98918695747852,40.75500254,-73.98014437,member,2022-04-09,11.4,both,2,2,2
142,89267CD4D2229C2C,classic_bike,2022-04-10 14:13:13,2022-04-10 14:21:45,Grand St & Elizabeth St,5382.06,Rivington St & Ridge St,5406.02,40.718822,-73.99596,40.71850211,-73.98329859,member,2022-04-10,8.6,both,2,2,2
143,007001D7C8BA215C,electric_bike,2022-04-10 20:48:31,2022-04-10 21:00:15,5 Ave & E 87 St,7323.09,W 87 St & Amsterdam Ave,7458.03,40.78232260730881,-73.95987510681152,40.78839,-73.9747,casual,2022-04-10,8.6,both,2,2,2
144,AAAC9A91E383350D,classic_bike,2022-04-11 18:52:09,2022-04-11 18:55:30,6 Ave & W 33 St,6364.07,W 30 St & 8 Ave,6373.07,40.74901271,-73.98848395,40.74965268472847,-73.9952078461647,member,2022-04-11,8.8,both,1,1,1
145,0359827812D90361,electric_bike,2022-04-12 16:33:20,2022-04-12 16:41:10,W 41 St & 8 Ave,6602.03,W 30 St & 10 Ave,6459.07,40.75640548,-73.9900262,40.752694,-74.002353,member,2022-04-12,13.4,both,5,5,5
146,6062FDE84495136A,electric_bike,2022-04-12 18:38:51,2022-04-12 18:52:21,Frederick Douglass Blvd & W 129 St,7795.09,Broadway & W 160 St,8157.06,40.8125511,-73.9492286,40.835775,-73.9434,member,2022-04-12,13.4,both,5,5,5
147,C58FBD84ECABE641,classic_bike,2022-04-12 08:32:40,2022-04-12 08:42:33,W 41 St & 8 Ave,6602.03,E 58 St & 3 Ave,6762.02,40.75640548,-73.9900262,40.76095756,-73.96724467,member,2022-04-12,13.4,both,5,5,5
148,9C1E54841B49C295,classic_bike,2022-04-12 09:11:49,2022-04-12 09:13:17,Franklin St & Dupont St,5944.01,Huron St & Franklin St,5869.04,40.73564,-73.95866,40.73266,-73.95826,member,2022-04-12,13.4,both,5,5,5
149,7959E413E5049A13,classic_bike,2022-04-12 19:42:44,2022-04-12 19:46:36,W 56 St & 10 Ave,6955.01,Broadway & W 56 St,6847.02,40.768254,-73.988639,40.7652654,-73.98192338,member,2022-04-12,13.4,both,5,5,5
150,B6D63958127B138B,classic_bike,2022-04-13 08:43:21,2022-04-13 08:49:36,7 St & 3 Ave,3996.01,Carroll St & Bond St,4184.07,40.67260298150126,-73.98983001708984,40.6786115,-73.99037292,member,2022-04-13,15.4,both,4,4,4
151,19924EEBF4905757,classic_bike,2022-04-13 14:42:42,2022-04-13 14:56:19,Amsterdam Ave & W 82 St,7360.1,West End Ave & W 107 St,7650.05,40.78524672,-73.97667321,40.8021174,-73.9681805305,member,2022-04-13,15.4,both,4,4,4
152,0559B83FB9FCAE2B,classic_bike,2022-04-13 17:00:38,2022-04-13 17:12:49,Cleveland Pl & Spring St,5492.05,South St & Pike St,5159.07,40.722103786686034,-73.99724900722504,40.70991806921533,-73.99161100387573,member,2022-04-13,15.4,both,4,4,4
153,A7417343AF42CF31,electric_bike,2022-04-13 12:54:46,2022-04-13 15:50:02,Graham Ave & Grand St,5178.06,Devoe St & Lorimer St,5259.06,40.711863,-73.944024,40.71335226222875,-73.9491033554077,member,2022-04-13,15.4,both,4,4,4
154,4DE2A4079DA645C7,classic_bike,2022-04-14 12:59:38,2022-04-14 13:28:03,Parade Pl & Crooke Ave,3376.02,Parade Pl & Crooke Ave,3376.02,40.651847,-73.965248,40.651847,-73.965248,casual,2022-04-14,16.3,both,4,4,4
155,93B11E40D5F5EBA5,classic_bike,2022-04-14 06:28:37,2022-04-14 06:32:47,Lexington Ave & E 29 St,6164.09,W 31 St & 7 Ave,6331.01,40.74311555376486,-73.98215353488922,40.749156,-73.9916,member,2022-04-14,16.3,both,4,4,4
156,632CF19D2DACBA44,classic_bike,2022-04-14 21:54:09,2022-04-14 22:04:22,W 30 St & 10 Ave,6459.07,8 Ave & W 16 St,6072.11,40.752694,-74.002353,40.740983,-74.001702,member,2022-04-14,16.3,both,4,4,4
157,117B6B3358605AE3,classic_bike,2022-04-14 15:40:17,2022-04-14 16:00:27,Central Park S & 6 Ave,6876.04,8 Ave & W 31 St,6450.05,40.76590936,-73.97634151,40.7505853470215,-73.9946848154068,member,2022-04-14,16.3,both,4,4,4
158,6A9D5A37851B97EF,electric_bike,2022-04-15 07:25:36,2022-04-15 07:37:41,Bedford Ave & Bergen St,4066.15,Bergen St & Smith St,4446.01,40.676368,-73.952918,40.6867443,-73.99063168,member,2022-04-15,15.7,both,2,2,2
159,E22591119F3ECBCD,classic_bike,2022-04-15 17:28:18,2022-04-15 17:32:17,E 76 St & Park Ave,7128.08,E 68 St & Madison Ave,6932.15,40.773763,-73.96222088,40.7691572,-73.96703464,casual,2022-04-15,15.7,both,2,2,2
160,8D8467560BBD53C5,classic_bike,2022-04-16 11:31:22,2022-04-16 11:34:01,1 Ave & E 18 St,5854.09,E 19 St & 3 Ave,5938.01,40.73381219196632,-73.98054420948029,40.73624527,-73.98473765,member,2022-04-16,15.7,both,2,2,2
161,8916648C6C1B876C,classic_bike,2022-04-16 16:16:51,2022-04-16 17:33:04,5 Ave & E 72 St,7100.07,Central Park W & W 97 St,7538.18,40.77282817,-73.96685276,40.79249519495111,-73.96417066463071,casual,2022-04-16,15.7,both,2,2,2
162,650549AB559CE57C,electric_bike,2022-04-17 15:03:39,2022-04-17 16:24:28,3 Ave & E 71 St,6960.1,5 Ave & E 72 St,7100.07,40.76873687,-73.96119945,40.77282817,-73.96685276,casual,2022-04-17,8.3,both,4,4,4
163,F0CC369DF3216F8A,classic_bike,2022-04-17 15:48:05,2022-04-17 16:02:12,E 31 St & 3 Ave,6239.08,W 34 St &\tHudson Blvd E,6535.04,40.74394314,-73.97966069,40.75516719072139,-74.00059908628464,member,2022-04-17,8.3,both,4,4,4
164,1A045C79F520B889,classic_bike,2022-04-17 12:58:13,2022-04-17 13:07:08,Washington Pl & 6 Ave,5838.09,W 20 St & 7 Ave,6182.02,40.73224119,-74.00026394,40.74238787,-73.99726235,member,2022-04-17,8.3,both,4,4,4
165,FA34193ECD954E8F,classic_bike,2022-04-17 13:43:22,2022-04-17 13:55:36,1 Ave & E 30 St,6079.03,St Marks Pl & 1 Ave,5626.13,40.74144387,-73.97536082,40.72779126,-73.98564945,member,2022-04-17,8.3,both,4,4,4
166,8E78DFA3DAAE1F4D,classic_bike,2022-04-18 20:56:07,2022-04-18 21:09:37,W 25 St & 6 Ave,6215.04,E 48 St & 3 Ave,6541.03,40.74395411,-73.99144871,40.7546011026,-73.971878855,member,2022-04-18,7.9,both,2,2,2
167,75CB65A5403862EF,classic_bike,2022-04-18 18:56:36,2022-04-18 19:11:43,Hanson Pl & Ashland Pl,4395.07,Bedford Ave & Bergen St,4066.15,40.68506807308177,-73.97790759801863,40.676368,-73.952918,casual,2022-04-18,7.9,both,2,2,2
168,2DDC484E89B9B35C,electric_bike,2022-04-19 13:46:06,2022-04-19 13:49:46,E 31 St & 3 Ave,6239.08,6 Ave & W 33 St,6364.07,40.74394314,-73.97966069,40.74901271,-73.98848395,casual,2022-04-19,7.6,both,3,3,3
169,AFE847CC1EFE1AF5,electric_bike,2022-04-19 09:36:03,2022-04-19 09:59:07,Bleecker St & Crosby St,5679.08,Mercer St & Bleecker St,5679.05,40.72615604980408,-73.99510189890862,40.72706363348306,-73.99662137031554,member,2022-04-19,7.6,both,3,3,3
170,2ED35BC498E4DC4B,electric_bike,2022-04-19 23:26:01,2022-04-19 23:38:49,1 Ave & E 18 St,5854.09,8 Ave & W 38 St,6526.05,40.73381219196632,-73.98054420948029,40.75461,-73.99177,member,2022-04-19,7.6,both,3,3,3
171,57F47C297F8B8963,electric_bike,2022-04-20 07:03:19,2022-04-20 07:24:56,Hope St & Union Ave,5187.03,Brooklyn Bridge Park - Pier 2,4756.04,40.71167351,-73.95141312,40.698458,-73.997178,member,2022-04-20,9.4,both,4,4,4
172,44344893B1B22E68,electric_bike,2022-04-20 07:09:06,2022-04-20 07:12:58,Broadway & W 56 St,6847.02,6 Ave & W 45 St,6593.15,40.7652654,-73.98192338,40.756951,-73.982631,member,2022-04-20,9.4,both,4,4,4
173,7B16A7F0FD868AB6,classic_bike,2022-04-20 08:18:03,2022-04-20 08:29:17,9 Ave & W 18 St,6190.08,Franklin St & W Broadway,5430.08,40.74317449,-74.00366443,40.71911552,-74.00666661,member,2022-04-20,9.4,both,4,4,4
174,9BC506E1DEC377C4,classic_bike,2022-04-20 08:40:24,2022-04-20 08:53:25,5 Ave & 3 St,3987.06,Bergen St & Smith St,4446.01,40.6728155,-73.98352355,40.6867443,-73.99063168,casual,2022-04-20,9.4,both,4,4,4
175,A06CCCAC4CC72B11,classic_bike,2022-04-21 15:38:52,2022-04-21 15:49:38,Washington Pl & Broadway,5755.01,Washington St & Gansevoort St,6039.06,40.72903917,-73.99404649,40.739323,-74.008119,member,2022-04-21,10.6,both,1,1,1
176,002708D21C9DA75D,classic_bike,2022-04-22 13:57:43,2022-04-22 14:27:50,Pier 40 - Hudson River Park,5696.03,Bus Slip & State St,4889.06,40.7277140777778,-74.01129573583603,40.701907,-74.013942,casual,2022-04-22,14.6,both,2,2,2
177,5F90B292E636A683,electric_bike,2022-04-22 18:57:00,2022-04-22 19:01:34,Concord St & Bridge St,4781.03,Jay St & Tech Pl,4710.06,40.69766564,-73.98476437,40.695065,-73.987167,member,2022-04-22,14.6,both,2,2,2
178,E9DB1FBDFA03A389,classic_bike,2022-04-23 13:23:39,2022-04-23 13:40:19,Nevins St & Schermerhorn St,4437.09,Carroll St & Smith St,4225.14,40.68737247650719,-73.98176059126854,40.680611,-73.99475825,casual,2022-04-23,13.3,both,5,5,5
179,B26494ABCC043D0E,classic_bike,2022-04-23 08:46:33,2022-04-23 09:09:35,Broadway & W 133 St,7903.02,W 95 St & Broadway,7541.01,40.8190344,-73.956156,40.7937704,-73.971888,member,2022-04-23,13.3,both,5,5,5
180,92E71DC7CF9CD254,classic_bike,2022-04-23 18:08:57,2022-04-23 18:53:01,9 Ave & W 45 St,6717.06,Bridge St & Water St,4968.03,40.76019252,-73.9912551,40.70296934155272,-73.98469090461731,member,2022-04-23,13.3,both,5,5,5
181,7E90821C369BBD81,classic_bike,2022-04-23 18:09:19,2022-04-23 18:49:38,Wythe Ave & Metropolitan Ave,5348.02,Jay St & York St,4895.09,40.716887,-73.963198,40.70140317257725,-73.98672670125961,casual,2022-04-23,13.3,both,5,5,5
182,86ECDE130F2CC288,classic_bike,2022-04-23 07:43:43,2022-04-23 08:17:08,Carroll St & 6 Ave,4019.06,Atlantic Ave & Furman St,4614.04,40.6740886,-73.9787282,40.69165183,-73.9999786,member,2022-04-23,13.3,both,5,5,5
183,E87BA2D32D3A00F6,classic_bike,2022-04-24 01:19:17,2022-04-24 01:26:00,Gansevoort St & Hudson St,6072.14,Broadway & E 14 St,5905.12,40.73944820130404,-74.00507032871246,40.73454567,-73.99074142,casual,2022-04-24,12.8,both,1,1,1
184,7317BC19491714FE,classic_bike,2022-04-25 23:29:34,2022-04-25 23:29:44,Broadway & W 25 St,6173.08,Broadway & W 25 St,6173.08,40.74286877312112,-73.98918628692627,40.74286877312112,-73.98918628692627,member,2022-04-25,10.4,both,4,4,4
185,E63AAA6B52FF579E,classic_bike,2022-04-25 18:21:40,2022-04-25 18:27:18,LaGuardia Pl & W 3 St,5721.14,Greenwich St & W Houston St,5730.08,40.72917025,-73.99810231,40.728846,-74.008591,casual,2022-04-25,10.4,both,4,4,4
186,3808E2DB82758CA8,classic_bike,2022-04-25 16:36:02,2022-04-25 16:41:15,Lexington Ave & E 29 St,6164.09,E 16 St & Irving Pl,5938.11,40.74311555376486,-73.98215353488922,40.735367055605394,-73.98797392845154,member,2022-04-25,10.4,both,4,4,4
187,353637CEEB7FE006,classic_bike,2022-04-25 05:53:05,2022-04-25 06:01:31,E 2 St & Avenue A,5553.1,E 2 St & 2 Ave,5593.02,40.72307749068673,-73.98583620786667,40.72502876,-73.99069656,casual,2022-04-25,10.4,both,4,4,4
188,E2389CF181A06986,electric_bike,2022-04-26 08:26:48,2022-04-26 08:38:14,E 74 St & 1 Ave,6953.08,E 97 St & 3 Ave,7365.08,40.7689738,-73.95482273,40.7859201,-73.94860294,member,2022-04-26,11.5,both,7,7,7
189,422203397E3F5656,electric_bike,2022-04-26 15:40:05,2022-04-26 16:03:09,W 63 St & Broadway,7052.01,E 4 St & 2 Ave,5593.04,40.77163851,-73.98261428,40.7262807,-73.98978041,member,2022-04-26,11.5,both,7,7,7
190,B1D20FEFAB8C4049,classic_bike,2022-04-26 09:19:41,2022-04-26 09:31:38,Washington Pl & Broadway,5755.01,Norfolk St & Broome St,5374.01,40.72903917,-73.99404649,40.7172274,-73.98802084,member,2022-04-26,11.5,both,7,7,7
191,D70DC1B789200687,electric_bike,2022-04-26 20:14:30,2022-04-26 20:50:22,Pearl St & Hanover Square,4993.02,Kosciuszko St & Tompkins Ave,4553.04,40.7047177,-74.00926027,40.69128258,-73.9452416,member,2022-04-26,11.5,both,7,7,7
192,A78E62D81E7BC4F6,classic_bike,2022-04-26 18:36:10,2022-04-26 18:43:01,E 16 St & 5 Ave,6022.04,E 10 St & Avenue A,5659.05,40.73726186,-73.99238967,40.72740794,-73.98142006,member,2022-04-26,11.5,both,7,7,7
193,5F8848D8FB047826,electric_bike,2022-04-26 14:29:12,2022-04-26 15:01:09,2 Ave & E 72 St,6925.09,Christopher St & Greenwich St,5847.01,40.7687620293096,-73.95840793848038,40.73291553,-74.00711384,member,2022-04-26,11.5,both,7,7,7
194,E9F3197B1CC3680F,classic_bike,2022-04-26 08:46:10,2022-04-26 09:03:25,Barrow St & Hudson St,5805.05,Water St & Gouverneur Ln,4993.15,40.73172428,-74.00674436,40.70469667894968,-74.00803416967392,member,2022-04-26,11.5,both,7,7,7
195,7486CA3F4BA68A2F,classic_bike,2022-04-27 09:44:19,2022-04-27 09:59:59,E 10 St & 2 Ave,5746.02,E 9 St & Avenue C,5616.01,40.72970805644994,-73.9865979552269,40.72521311,-73.97768752,member,2022-04-27,11.6,both,2,2,2
196,8F9BBC6C80B19D24,classic_bike,2022-04-27 09:15:19,2022-04-27 09:32:14,7 Ave & Central Park South,6912.01,E 9 St & 5 Ave,5872.1,40.7667405590595,-73.9790689945221,40.73275887045087,-73.99581670761108,member,2022-04-27,11.6,both,2,2,2
197,9281501DD79F4EDA,electric_bike,2022-04-28 23:45:59,2022-04-29 00:01:02,Fulton St & Waverly Ave,4345.11,Carroll St & Bond St,4184.07,40.68323865460341,-73.96599590778351,40.6786115,-73.99037292,casual,2022-04-28,8.2,both,5,5,5
198,F2A52C3280A6C5F9,electric_bike,2022-04-28 16:06:03,2022-04-28 16:23:17,8 Ave & W 16 St,6072.11,West Thames St,5114.06,40.740983,-74.001702,40.70834698,-74.01713445,member,2022-04-28,8.2,both,5,5,5
199,5393FAEE0EDA04BE,classic_bike,2022-04-28 12:16:42,2022-04-28 12:19:35,Whitehall St & Bridge St,4962.02,William St & Pine St,5065.12,40.70366170524135,-74.0131813287735,40.70717936,-74.00887308,member,2022-04-28,8.2,both,5,5,5
200,13F02742F9CDE543,electric_bike,2022-04-28 21:39:05,2022-04-28 21:44:37,Myrtle Ave & Fleet Pl,4628.07,Flushing Ave & Vanderbilt Ave,4762.05,40.693534,-73.981909,40.69795031569544,-73.97077560424805,member,2022-04-28,8.2,both,5,5,5
201,4F77D9A087475649,classic_bike,2022-04-28 09:02:21,2022-04-28 09:13:43,Central Park W & W 91 St,7453.01,7 Ave & Central Park South,6912.01,40.78866499127884,-73.96680057048798,40.7667405590595,-73.9790689945221,member,2022-04-28,8.2,both,5,5,5
202,0F2BF4583B919068,classic_bike,2022-04-29 15:22:36,2022-04-29 15:27:47,W 24 St & 7 Ave,6257.03,W 35 St & 8 Ave,6526.01,40.74487634,-73.99529885,40.752762088742045,-73.99280458705107,member,2022-04-29,10.4,both,5,5,5
203,4BB31675D2913CB6,classic_bike,2022-04-29 09:32:53,2022-04-29 10:27:27,Broadway & W 58 St,6948.1,10 Ave & W 28 St,6459.04,40.76695317,-73.98169333,40.75066386,-74.00176802,casual,2022-04-29,10.4,both,5,5,5
204,210151D37FEEF41C,classic_bike,2022-04-29 10:57:05,2022-04-29 11:02:19,University Pl & E 14 St,5905.14,Washington Pl & 6 Ave,5838.09,40.734814,-73.992085,40.73224119,-74.00026394,member,2022-04-29,10.4,both,5,5,5
205,CC95A915980D7241,electric_bike,2022-04-29 14:04:02,2022-04-29 14:08:00,Willoughby Ave & Hall St,4611.03,Willoughby Ave & Walworth St,4634.02,40.69196035,-73.96536851,40.69331716,-73.95381995,casual,2022-04-29,10.4,both,5,5,5
206,63A4A6125E14C6E9,electric_bike,2022-04-29 21:09:01,2022-04-29 21:31:52,W 89 St & Columbus Ave,7432.09,W 50 St & 10 Ave,6890.06,40.7882213,-73.97041561,40.76473420006519,-73.99194359779358,member,2022-04-29,10.4,both,5,5,5
207,FD79B72B080772E7,classic_bike,2022-04-30 12:01:33,2022-04-30 12:27:35,E 40 St & 5 Ave,6474.11,E 19 St & 3 Ave,5938.01,40.752062307,-73.9816324043,40.73624527,-73.98473765,casual,2022-04-30,12.9,both,2,2,2
208,285E9E5848CE9DCE,classic_bike,2022-04-30 16:39:27,2022-04-30 16:42:19,Clinton St & Tillary St,4748.07,Henry St & Remsen St,4645.04,40.69623297129316,-73.99142056703568,40.69400964865994,-73.99465128779411,member,2022-04-30,12.9,both,2,2,2
209,63B9C535E4FC000F,classic_bike,2022-05-01 04:42:56,2022-05-01 04:47:13,West St & Chambers St,5329.03,Centre St & Chambers St,5207.01,40.71754834,-74.01322069,40.71273266,-74.0046073,casual,2022-05-01,13.6,both,3,3,3
210,1D919E4FCCE5C311,classic_bike,2022-05-01 14:46:52,2022-05-01 15:02:46,14 St & 5 Ave,3771.06,Prospect Pl & Underhill Ave,4116.08,40.666287,-73.98895053,40.6769694,-73.96579,member,2022-05-01,13.6,both,3,3,3
211,8164CD53A4959140,classic_bike,2022-05-01 13:10:52,2022-05-01 13:12:14,35 St & 30 Ave,6887.03,28 Ave & 35 St,6951.03,40.76547569244953,-73.91811579465866,40.7671,-73.9169858,member,2022-05-01,13.6,both,3,3,3
212,85708A8A015A86DD,electric_bike,2022-05-02 21:36:40,2022-05-02 21:51:26,5 Ave & E 87 St,7323.09,W 106 St & Amsterdam Ave,7634.01,40.78232260730881,-73.95987510681152,40.8008363,-73.9664492472,casual,2022-05-02,12.1,both,2,2,2
213,5A4CDFD6C7FAFF9A,classic_bike,2022-05-02 08:49:49,2022-05-02 08:56:37,Pierrepont St & Monroe Pl,4718.08,Court St & State St,4488.08,40.69535693320225,-73.99344027042389,40.6902375,-73.99203074,member,2022-05-02,12.1,both,2,2,2
214,64465A0E2414A4AC,classic_bike,2022-05-03 12:25:15,2022-05-03 12:35:05,W 133 St & 12 Ave,7925.04,Riverside Dr & W 153 St,8108.02,40.820003,-73.959089,40.832164,-73.949702,member,2022-05-03,12.4,both,4,4,4
215,13A70B5D09100371,classic_bike,2022-05-03 12:54:56,2022-05-03 13:13:22,Lafayette St & Jersey St,5561.06,12 Ave & W 40 St,6765.01,40.72456089,-73.99565293,40.76087502,-74.00277668,member,2022-05-03,12.4,both,4,4,4
216,3B374BBBDDA11A07,classic_bike,2022-05-03 16:50:26,2022-05-03 16:51:54,W 35 St & Dyer Ave,6569.08,W 37 St & 10 Ave,6611.02,40.754691750226016,-73.99740189313889,40.75660359,-73.9979009,member,2022-05-03,12.4,both,4,4,4
217,019883DBAE8B8EAB,classic_bike,2022-05-03 11:17:13,2022-05-03 12:05:12,W 22 St & 8 Ave,6224.03,Bayard St & Baxter St,5351.03,40.74475148,-73.99915362,40.71602118,-73.99974372,casual,2022-05-03,12.4,both,4,4,4
218,26E83CD0CD4DE913,classic_bike,2022-05-04 17:38:42,2022-05-04 17:44:08,W 42 St & 8 Ave,6602.05,W 37 St & 10 Ave,6611.02,40.7575699,-73.99098507,40.75660359,-73.9979009,member,2022-05-04,12.0,both,3,3,3
219,935BA3415D1B0ED9,electric_bike,2022-05-04 16:48:55,2022-05-04 16:53:24,E 56 St & Madison Ave,6732.01,E 44 St & Lexington Ave,6464.09,40.761573,-73.972628,40.752643,-73.974996,member,2022-05-04,12.0,both,3,3,3
220,6CB20887EAC0713C,electric_bike,2022-05-04 13:41:06,2022-05-04 13:46:48,W 51 St & 6 Ave,6740.1,W 41 St & 8 Ave,6602.03,40.7606597,-73.98042047,40.75640548,-73.9900262,member,2022-05-04,12.0,both,3,3,3
221,E394DE18D5153560,electric_bike,2022-05-05 20:32:16,2022-05-05 20:50:25,Rogers Ave & Sterling St,3696.05,Bedford Ave & S 9 St,5093.01,40.6630619,-73.9538746,40.70853074,-73.96408963,casual,2022-05-05,17.2,both,2,2,2
222,C98276B31264D76E,classic_bike,2022-05-05 18:16:49,2022-05-05 18:24:47,Emerson Pl & Myrtle Ave,4683.02,Hancock St & Bedford Ave,4255.05,40.69363137,-73.96223558,40.68216564,-73.95399026,member,2022-05-05,17.2,both,2,2,2
223,EA13C2D36FC3EC08,classic_bike,2022-05-06 16:26:11,2022-05-06 16:38:24,34 St & 38 Ave,6453.02,37 St & 24 Ave,6981.16,40.752443,-73.929737,40.7701477,-73.9120938,member,2022-05-06,14.8,both,1,1,1
224,42A535B410E3C648,classic_bike,2022-05-07 04:05:27,2022-05-07 04:10:58,Humboldt St & Varet St,4956.02,Throop Ave & Myrtle Ave,4697.01,40.7031724,-73.940636,40.69622937,-73.94371094,casual,2022-05-07,10.0,both,1,1,1
225,5E40911EF9311034,classic_bike,2022-05-08 17:20:05,2022-05-08 17:34:36,N 11 St & Kent Ave,5489.04,Broadway & Berry St,5164.04,40.72248188638219,-73.95921930670738,40.71044554,-73.96525063,casual,2022-05-08,10.4,both,3,3,3
226,0E97D8E8A0E068F0,classic_bike,2022-05-08 03:40:05,2022-05-08 04:26:34,Broadway & W 133 St,7903.02,E 138 St & 5 Av,7809.13,40.8190344,-73.956156,40.81449,-73.936153,member,2022-05-08,10.4,both,3,3,3
227,48796CBA0C59309B,electric_bike,2022-05-08 16:03:10,2022-05-08 16:33:24,Central Park S & 6 Ave,6876.04,Central Park W & W 91 St,7453.01,40.76590936,-73.97634151,40.78866499127884,-73.96680057048798,casual,2022-05-08,10.4,both,3,3,3
228,EDC7671260640FA6,electric_bike,2022-05-09 17:31:55,2022-05-09 17:35:42,W 18 St & 6 Ave,6064.08,E 19 St & 3 Ave,5938.01,40.73971301,-73.99456405,40.73624527,-73.98473765,member,2022-05-09,13.5,both,1,1,1
229,138CBEF8848BA233,classic_bike,2022-05-10 09:13:27,2022-05-10 09:23:28,E 33 St & 5 Ave,6322.01,Greenwich Ave & 8 Ave,6072.06,40.74765947,-73.98490707,40.7390169121,-74.0026376103,member,2022-05-10,15.4,both,1,1,1
230,5985852BF364267A,classic_bike,2022-05-12 17:10:06,2022-05-12 17:29:30,E 40 St & 5 Ave,6474.11,Carmine St & 6 Ave,5763.03,40.752062307,-73.9816324043,40.73038599,-74.00214988,member,2022-05-12,17.1,both,2,2,2
231,F6D44F167F0A0F23,electric_bike,2022-05-12 08:47:03,2022-05-12 08:53:01,E 138 St & Grand Concourse,7803.08,Willis Ave & E 143 St,7798.02,40.813224,-73.930605,40.812299,-73.92037,member,2022-05-12,17.1,both,2,2,2
232,3B62B858A1E99BD6,electric_bike,2022-05-13 13:59:53,2022-05-13 14:31:11,E 20 St & Park Ave,6055.08,Little West St & 1 Pl,5001.08,40.73827428,-73.98751968,40.70569254,-74.01677685,member,2022-05-13,16.0,both,4,4,4
233,1EED8DDFF6DAAD2B,electric_bike,2022-05-13 18:33:50,2022-05-13 19:01:13,West St & Liberty St,5184.08,Stanton St & Norfolk St,5445.07,40.711444,-74.014847,40.720747,-73.986274,casual,2022-05-13,16.0,both,4,4,4
234,48365E5FD045F907,classic_bike,2022-05-13 13:37:51,2022-05-13 13:42:50,8 Ave & W 16 St,6072.11,W 20 St & 10 Ave,6306.01,40.740983,-74.001702,40.745686,-74.005141,member,2022-05-13,16.0,both,4,4,4
235,798E804A1E4F2CC7,classic_bike,2022-05-13 17:48:22,2022-05-13 17:57:10,W 21 St & 6 Ave,6140.05,W 31 St & 7 Ave,6331.01,40.74173969,-73.99415556,40.749156,-73.9916,member,2022-05-13,16.0,both,4,4,4
236,51284EF20C59137B,classic_bike,2022-05-14 15:32:07,2022-05-14 15:50:43,Greenwich Ave & Charles St,5914.08,W 29 St & 9 Ave,6416.06,40.735238,-74.000271,40.7500727,-73.99839279,member,2022-05-14,17.9,both,5,5,5
237,44830ABE7B9B4B66,electric_bike,2022-05-14 19:15:33,2022-05-14 19:20:01,3 Ave & E 62 St,6762.04,E 77 St & 3 Ave,7092.06,40.76312584,-73.96526895,40.77314236,-73.95856158,member,2022-05-14,17.9,both,5,5,5
238,FFEC8DA1DE31791E,electric_bike,2022-05-14 23:17:07,2022-05-14 23:21:38,5 Ave & W 131 St,7735.05,Lenox Ave & W 144 St,7910.01,40.81014,-73.93973,40.819783,-73.936521,member,2022-05-14,17.9,both,5,5,5
239,4D4A45D161A347D4,classic_bike,2022-05-14 12:45:58,2022-05-14 12:56:15,Cliff St & Fulton St,5065.14,Spruce St & Nassau St,5137.1,40.70838,-74.00495,40.71146364,-74.00552427,casual,2022-05-14,17.9,both,5,5,5
240,98048AAEE5F26530,classic_bike,2022-05-14 14:21:50,2022-05-14 14:41:28,W 13 St & 5 Ave,5947.04,Allen St & Hester St,5342.1,40.735445,-73.99431,40.71605866,-73.99190759,member,2022-05-14,17.9,both,5,5,5
241,7C63A62890DFC8FE,classic_bike,2022-05-15 18:52:47,2022-05-15 19:04:51,Ave A & E 11 St,5703.13,South St & Pike St,5159.07,40.72854745023944,-73.98175925016403,40.70991806921533,-73.99161100387573,member,2022-05-15,18.8,both,4,4,4
242,DCB9869F78B064FA,classic_bike,2022-05-15 21:47:05,2022-05-15 21:57:47,Broadway & W 25 St,6173.08,1 Ave & E 39 St,6303.01,40.74286877312112,-73.98918628692627,40.74714,-73.97113,member,2022-05-15,18.8,both,4,4,4
243,9708242FDDFE4863,classic_bike,2022-05-15 12:22:15,2022-05-15 12:29:18,Bushwick Ave & Linden St,4600.09,Stockholm St & Wilson Ave,4824.03,40.69146,-73.92146,40.699304,-73.923044,casual,2022-05-15,18.8,both,4,4,4
244,3A874190DAA8BE1D,classic_bike,2022-05-15 22:18:48,2022-05-15 22:22:53,Graham Ave & Conselyea St,5291.05,Engert Ave & McGuinness Blvd,5473.03,40.715143,-73.944507,40.72158,-73.94546,member,2022-05-15,18.8,both,4,4,4
245,A4B82960805E7AFD,electric_bike,2022-05-16 10:47:22,2022-05-16 10:59:51,Mott St & Prince St,5561.04,Washington St & Gansevoort St,6039.06,40.72317958,-73.99480012,40.739323,-74.008119,member,2022-05-16,20.4,both,2,2,2
246,D810BF18863F97D4,classic_bike,2022-05-16 17:08:48,2022-05-16 17:36:51,34 Ave & 38 St,6638.01,27 St & Hunter St,6310.06,40.756913,-73.921631,40.7485,-73.941275,member,2022-05-16,20.4,both,2,2,2
247,5847F612476818FC,classic_bike,2022-05-17 18:51:50,2022-05-17 18:58:40,Madison Av & E 51 St,6659.09,W 49 St & 8 Ave,6747.06,40.75863,-73.97513,40.76227205,-73.98788205,member,2022-05-17,19.7,both,3,3,3
248,A84DB18FC098F35E,classic_bike,2022-05-17 19:21:28,2022-05-17 19:51:10,Ave D & E 8 St,5506.1,E 33 St & 5 Ave,6322.01,40.72368361,-73.97574813,40.74765947,-73.98490707,member,2022-05-17,19.7,both,3,3,3
249,6D29435D7FFFCD79,classic_bike,2022-05-17 17:06:20,2022-05-17 17:10:37,Pier 40 - Hudson River Park,5696.03,Christopher St & Greenwich St,5847.01,40.7277140777778,-74.01129573583603,40.73291553,-74.00711384,member,2022-05-17,19.7,both,3,3,3
250,AD031358135A6469,classic_bike,2022-05-18 07:46:47,2022-05-18 07:55:34,Columbia St & Rivington St,5365.02,Division St & Bowery,5270.08,40.71739973,-73.98016555,40.714193,-73.996732,member,2022-05-18,17.8,both,5,5,5
251,8E89173CE5FAFEFE,classic_bike,2022-05-18 18:44:09,2022-05-18 19:14:27,E 47 St & 2 Ave,6498.1,Edgecombe Ave & W 141 St,7915.11,40.75323098,-73.97032517,40.820681,-73.945144,member,2022-05-18,17.8,both,5,5,5
252,A535832819432176,electric_bike,2022-05-18 18:25:57,2022-05-18 18:46:20,Classon Ave & St Marks Ave,4074.03,Metropolitan Ave & Bedford Ave,5308.04,40.6765198,-73.9596082,40.71534825,-73.96024116,member,2022-05-18,17.8,both,5,5,5
253,38A06C7854A7EB95,classic_bike,2022-05-18 11:12:42,2022-05-18 11:15:37,Metropolitan Ave & Meeker Ave,5300.05,Union Ave & N 12 St,5411.07,40.71413311,-73.95234386,40.71924,-73.95242,member,2022-05-18,17.8,both,5,5,5
254,829A6C1C7507ABBF,classic_bike,2022-05-18 19:24:37,2022-05-18 19:26:16,W 111 St & 5 Ave,7587.16,Lenox Ave & W 111 St,7602.05,40.797644734,-73.948948383,40.7987859,-73.9523,member,2022-05-18,17.8,both,5,5,5
255,673CE73D0771594D,classic_bike,2022-05-19 18:19:00,2022-05-19 18:25:31,Washington Ave & Greene Ave,4419.03,Prospect Pl & Underhill Ave,4116.08,40.68650065,-73.96563307,40.6769694,-73.96579,member,2022-05-19,15.5,both,4,4,4
256,121A2BC519EAA78B,classic_bike,2022-05-19 17:12:42,2022-05-19 17:24:45,10 St & 7 Ave,3762.08,Plaza St East & Flatbush Ave,4010.01,40.6662078,-73.98199886,40.673134,-73.969106,casual,2022-05-19,15.5,both,4,4,4
257,107DD9B680B8DFF3,classic_bike,2022-05-19 18:41:33,2022-05-19 18:48:57,W 16 St & The High Line,6233.05,W 18 St & 6 Ave,6064.08,40.74334935,-74.00681753,40.73971301,-73.99456405,member,2022-05-19,15.5,both,4,4,4
258,54D5F3FE4598EE7A,electric_bike,2022-05-19 15:55:48,2022-05-19 16:41:36,Amsterdam Ave & W 79 St,7311.02,Central Park West & W 76 St,7253.04,40.7829391,-73.9786517,40.77896784,-73.97374737,casual,2022-05-19,15.5,both,4,4,4
259,83E1168B2F4EDB99,classic_bike,2022-05-20 03:24:36,2022-05-20 03:49:17,Willoughby Ave & Wyckoff Ave,5010.02,Carroll St & Smith St,4225.14,40.705614,-73.92153,40.680611,-73.99475825,member,2022-05-20,15.4,both,1,1,1
260,2099EF10C5F390A7,classic_bike,2022-05-21 20:30:26,2022-05-21 21:24:13,West Drive & Prospect Park West,3651.04,West Drive & Prospect Park West,3651.04,40.6610633719006,-73.97945255041122,40.6610633719006,-73.97945255041122,casual,2022-05-21,21.2,both,6,6,6
261,FBAAFC1E63C82EDB,classic_bike,2022-05-21 19:02:10,2022-05-21 20:45:44,Little West St & 1 Pl,5001.08,West Thames St,5114.06,40.70569254,-74.01677685,40.70834698,-74.01713445,casual,2022-05-21,21.2,both,6,6,6
262,56EE8A8D0549B087,classic_bike,2022-05-21 15:06:55,2022-05-21 15:23:31,E 16 St & Irving Pl,5938.11,5 Ave & E 29 St,6248.06,40.735367055605394,-73.98797392845154,40.7451677,-73.98683077,casual,2022-05-21,21.2,both,6,6,6
263,818A696BF1EB5882,electric_bike,2022-05-21 05:13:12,2022-05-21 05:24:04,11 St & 43 Ave,6438.04,11 St & 43 Ave,6438.04,40.7519071,-73.9479119,40.7519071,-73.9479119,member,2022-05-21,21.2,both,6,6,6
264,D18CB8A30AA65D49,electric_bike,2022-05-21 08:13:21,2022-05-21 08:33:59,E 40 St & 5 Ave,6474.11,Centre St & Worth St,5279.03,40.752062307,-73.9816324043,40.71494807,-74.00234482,casual,2022-05-21,21.2,both,6,6,6
265,60ECDA0495FFEA53,electric_bike,2022-05-21 08:12:34,2022-05-21 08:23:14,E 138 St & Canal St W,7803.03,St. Nicholas Ave & W 157 St,8085.09,40.812304,-73.929153,40.832314,-73.94102,member,2022-05-21,21.2,both,6,6,6
266,44483E777F842411,classic_bike,2022-05-22 16:01:41,2022-05-22 16:06:32,Crescent St & Broadway,6827.11,Crescent St & 30 Ave,6958.06,40.7633589,-73.9286471,40.768692,-73.9249574,casual,2022-05-22,27.8,both,3,3,3
267,A87BBDF26A745FF8,classic_bike,2022-05-22 16:50:48,2022-05-22 16:57:12,Pacific St & Nevins St,4362.04,Court St & State St,4488.08,40.6853761,-73.98302136,40.6902375,-73.99203074,member,2022-05-22,27.8,both,3,3,3
268,4F42188E5E17AEED,classic_bike,2022-05-22 13:33:49,2022-05-22 14:29:04,W 52 St & 6 Ave,6740.01,Central Park West & W 85 St,7354.01,40.76132983124814,-73.97982001304626,40.78476,-73.969862,casual,2022-05-22,27.8,both,3,3,3
269,EA136D2E3B15E813,electric_bike,2022-05-23 15:47:26,2022-05-23 16:04:45,Bergen Ave & E 152 St,7858.02,Creston Ave & E 181 St,8456.02,40.817166,-73.914737,40.8549,-73.90281,member,2022-05-23,21.0,both,4,4,4
270,D8074C65FEA7722C,classic_bike,2022-05-23 13:47:34,2022-05-23 13:56:39,E 59 St & Madison Ave,6801.01,Broadway & W 56 St,6847.02,40.76350532,-73.97109243,40.7652654,-73.98192338,member,2022-05-23,21.0,both,4,4,4
271,C15C41581A16131B,classic_bike,2022-05-23 09:53:29,2022-05-23 10:00:41,E 9 St & 5 Ave,5872.1,Stanton St & Chrystie St,5523.02,40.73275887045087,-73.99581670761108,40.72229346,-73.99147535,member,2022-05-23,21.0,both,4,4,4
272,4B0FBD86B0435AE4,classic_bike,2022-05-23 10:02:12,2022-05-23 10:09:58,8 Ave & W 33 St,6450.12,6 Ave & W 45 St,6593.15,40.751551,-73.993934,40.756951,-73.982631,member,2022-05-23,21.0,both,4,4,4
273,35C279A89ABAC7A1,classic_bike,2022-05-24 19:24:34,2022-05-24 19:43:23,West St & Chambers St,5329.03,E 16 St & 5 Ave,6022.04,40.71754834,-74.01322069,40.73726186,-73.99238967,member,2022-05-24,17.4,both,5,5,5
274,D243A49901DC3285,electric_bike,2022-05-24 17:13:24,2022-05-24 17:19:05,E 6 St & Avenue D,5506.14,1 Ave & E 16 St,5779.08,40.72228087,-73.97668709,40.73221853,-73.98165557,member,2022-05-24,17.4,both,5,5,5
275,E1D3A98F17E5ADB3,classic_bike,2022-05-24 20:04:03,2022-05-24 20:45:49,N 15 St & Wythe Ave,5520.09,Central Park West & W 72 St,7141.07,40.724055,-73.955736,40.77579376683666,-73.9762057363987,member,2022-05-24,17.4,both,5,5,5
276,607E39BF99CBC5F5,electric_bike,2022-05-24 18:48:36,2022-05-25 02:10:48,Grand Concourse & E 196 St,8635.08,Grand Concourse & E 205 St,8766.03,40.86767,-73.89286,40.875531,-73.8863864831,member,2022-05-24,17.4,both,5,5,5
277,75060C9D102CE7ED,classic_bike,2022-05-24 12:21:53,2022-05-24 12:42:52,Franklin St & W Broadway,5430.08,Hudson St & Reade St,5359.1,40.71911552,-74.00666661,40.71625008,-74.0091059,member,2022-05-24,17.4,both,5,5,5
278,FEF4B7DA1B4ED9AA,classic_bike,2022-05-25 12:45:55,2022-05-25 12:56:42,Pitt St & Stanton St,5406.04,Pitt St & Stanton St,5406.04,40.71926081,-73.98178024,40.71926081,-73.98178024,member,2022-05-25,16.2,both,6,6,6
279,F445124F84302D11,classic_bike,2022-05-25 10:43:46,2022-05-25 10:48:46,E 13 St & 2 Ave,5820.08,E 20 St & Park Ave,6055.08,40.73153937464073,-73.9853024482727,40.73827428,-73.98751968,member,2022-05-25,16.2,both,6,6,6
280,2F16E91BF84452BE,classic_bike,2022-05-25 10:28:47,2022-05-25 10:46:08,Clinton St & Tillary St,4748.07,Great Jones St,5636.11,40.69623297129316,-73.99142056703568,40.72743423,-73.99379025,member,2022-05-25,16.2,both,6,6,6
281,ED803CC1448DCD3F,classic_bike,2022-05-25 22:24:06,2022-05-25 22:30:00,E 2 St & 2 Ave,5593.02,Thompson St & Bleecker St,5721.07,40.72502876,-73.99069656,40.72840059450829,-73.99968780577183,member,2022-05-25,16.2,both,6,6,6
282,53FD23DAEA8DF2F1,classic_bike,2022-05-25 19:02:42,2022-05-25 19:09:51,St Johns Pl & Washington Ave,4001.09,DeKalb Ave & Vanderbilt Ave,4461.04,40.6737236,-73.9631611,40.68940747,-73.96885458,member,2022-05-25,16.2,both,6,6,6
283,3C026284F6AF9D54,electric_bike,2022-05-25 20:22:50,2022-05-25 20:37:58,Carroll St & Franklin Ave,3847.04,Prospect Park W & 20 St,3507.04,40.6679411,-73.9588,40.656633,-73.983864,member,2022-05-25,16.2,both,6,6,6
284,C8B9346994C5049F,classic_bike,2022-05-26 17:43:30,2022-05-26 17:54:27,E 40 St & Park Ave,6432.11,W 21 St & 6 Ave,6140.05,40.750756,-73.978326,40.74173969,-73.99415556,member,2022-05-26,16.4,both,3,3,3
285,C82284E778C7C600,classic_bike,2022-05-26 13:27:15,2022-05-26 13:32:14,W 15 St & 6 Ave,5989.02,W 22 St & 8 Ave,6224.03,40.738046142482766,-73.99642959237099,40.74475148,-73.99915362,member,2022-05-26,16.4,both,3,3,3
286,AF1F693EF48B2B67,electric_bike,2022-05-26 13:55:37,2022-05-26 13:55:40,W 11 St & 6 Ave,5914.03,W 11 St & 6 Ave,5914.03,40.73532427,-73.99800419,40.73532427,-73.99800419,member,2022-05-26,16.4,both,3,3,3
287,D362ECA8F5CFDC26,classic_bike,2022-05-27 09:08:20,2022-05-27 09:26:54,W 35 St & 8 Ave,6526.01,10 Ave & W 14 St,6157.04,40.752762088742045,-73.99280458705107,40.74198159994023,-74.00831580162048,member,2022-05-27,20.2,both,3,3,3
288,6E84516D140C660F,classic_bike,2022-05-27 20:20:36,2022-05-27 20:43:27,MacDougal St & Washington Sq,5797.01,Duffield St & Willoughby St,4596.05,40.73226398,-73.99852205,40.69221589,-73.9842844,member,2022-05-27,20.2,both,3,3,3
289,37AD5197AA79C8B3,classic_bike,2022-05-27 18:43:01,2022-05-27 19:04:45,E 91 St & Park Ave,7344.05,E 53 St & Lexington Ave,6617.09,40.7835016,-73.955327,40.75828065,-73.97069431,member,2022-05-27,20.2,both,3,3,3
290,F9F560D42346935F,classic_bike,2022-05-28 14:42:28,2022-05-28 14:46:22,W 21 St & 6 Ave,6140.05,9 Ave & W 22 St,6266.06,40.74173969,-73.99415556,40.7454973,-74.00197139,member,2022-05-28,20.4,both,4,4,4
291,67BD6A2D72962AFF,electric_bike,2022-05-28 17:53:56,2022-05-28 18:37:51,Orchard St & Grand St,5343.11,Central Ave & Covert St,4550.05,40.717318403855785,-73.99067759513855,40.68929,-73.90951,casual,2022-05-28,20.4,both,4,4,4
292,F66A8734FDAB38F0,classic_bike,2022-05-28 19:39:39,2022-05-28 19:47:15,Maiden Ln & Pearl St,5065.1,South St & Whitehall St,4846.01,40.70706456,-74.00731853,40.70122128,-74.01234218,member,2022-05-28,20.4,both,4,4,4
293,08675B94ABEA38F5,electric_bike,2022-05-28 12:42:29,2022-05-28 13:03:00,E 58 St & 3 Ave,6762.02,W 55 St & 6 Ave,6809.09,40.76095756,-73.96724467,40.763189,-73.978434,casual,2022-05-28,20.4,both,4,4,4
294,1016D4DBA4A603BD,classic_bike,2022-05-29 21:02:17,2022-05-29 21:29:37,John St & William St,5065.04,1 Ave & E 44 St,6379.03,40.70862144,-74.00722156,40.75001986,-73.96905301,member,2022-05-29,20.7,both,4,4,4
295,48191609323A8E8F,electric_bike,2022-05-29 19:35:55,2022-05-29 19:38:00,Frederick Douglass Blvd & W 112 St,7631.23,W 110 St & Amsterdam Ave,7646.04,40.801694,-73.957145,40.802692,-73.96295,member,2022-05-29,20.7,both,4,4,4
296,7D5AA450AC759D45,classic_bike,2022-05-29 19:19:17,2022-05-29 19:25:03,Lafayette St & Jersey St,5561.06,Greenwich St & Perry St,5922.04,40.72456089,-73.99565293,40.73498,-74.00697,casual,2022-05-29,20.7,both,4,4,4
297,DCE57B1F88A1B31E,classic_bike,2022-05-29 16:26:51,2022-05-29 17:08:39,1 Ave & E 110 St,7522.02,E 114 St & 1 Ave,7540.02,40.7923272,-73.9383,40.7945663,-73.9362541,casual,2022-05-29,20.7,both,4,4,4
298,4FB5CE2BB8C8D70A,classic_bike,2022-05-30 14:47:10,2022-05-30 14:58:29,E 53 St & Lexington Ave,6617.09,W 36 St & 9 Ave,6569.07,40.758160353,-73.970977068,40.75462324029105,-73.99516761302948,member,2022-05-30,23.3,both,2,2,2
299,05C3ED289A9FFC15,classic_bike,2022-05-30 15:07:12,2022-05-30 15:22:38,Adam Clayton Powell Blvd & W 138 St,7855.03,12 Ave & W 125 St,7886.02,40.81695971032464,-73.9422959089279,40.818299,-73.960405,casual,2022-05-30,23.3,both,2,2,2
300,A777BF7EED6586CF,classic_bike,2022-05-31 08:00:37,2022-05-31 08:09:25,E 74 St & 1 Ave,6953.08,E 89 St & York Ave,7204.08,40.7689738,-73.95482273,40.7779453,-73.946041,member,2022-05-31,28.3,both,2,2,2
301,000D308C6A41DBBB,electric_bike,2022-05-31 10:13:36,2022-05-31 10:23:43,Broadway & W 133 St,7903.02,E 123 St & Lexington Ave,7636.05,40.8190344,-73.956156,40.8029263,-73.9379,casual,2022-05-31,28.3,both,2,2,2
302,3B3209635FF07ABD,classic_bike,2022-06-01 08:56:58,2022-06-01 09:07:08,St James Pl & Oliver St,5238.05,Pearl St & Peck Slip,5096.11,40.71307916,-73.99851193,40.708485,-74.002751,member,2022-06-01,17.8,both,2,2,2
303,6EC6DA63D9C16A18,classic_bike,2022-06-01 13:59:06,2022-06-01 14:13:53,Central Ave & Flushing Ave,4947.04,Central Ave & Himrod St,4713.01,40.702831,-73.9333,40.69676,-73.92302,casual,2022-06-01,17.8,both,2,2,2
304,26E448E463F60D7C,classic_bike,2022-06-02 10:16:22,2022-06-02 10:20:23,Lexington Ave & E 36 St,6313.1,Lexington Ave & E 26 St,6089.08,40.7475739589548,-73.9788007736206,40.741459,-73.983293,member,2022-06-02,20.3,both,1,1,1
305,687E0943C9CAD99C,classic_bike,2022-06-03 08:48:02,2022-06-03 08:57:09,Pitt St & Stanton St,5406.04,Forsyth St\t& Grand St,5382.07,40.71926081,-73.98178024,40.71779817737835,-73.99316132068634,member,2022-06-03,19.5,both,3,3,3
306,AF6FDC506350679C,classic_bike,2022-06-03 18:36:41,2022-06-03 19:07:12,W 48 St &  Rockefeller Plaza,6626.11,Greene St & Prince St,5602.06,40.75776935448309,-73.97929430007935,40.72511734422387,-73.99930492043495,casual,2022-06-03,19.5,both,3,3,3
307,55EE60E1A5D46247,electric_bike,2022-06-03 19:18:07,2022-06-03 19:30:34,Washington Pl & 6 Ave,5838.09,E 31 St & 3 Ave,6239.08,40.73224119,-74.00026394,40.74394314,-73.97966069,casual,2022-06-03,19.5,both,3,3,3
308,636C3DB58AEB4736,electric_bike,2022-06-04 17:14:56,2022-06-04 17:20:48,E 14 St & 1 Ave,5779.1,E 16 St & 5 Ave,6022.04,40.73139303364151,-73.98286700248718,40.73726186,-73.99238967,member,2022-06-04,21.9,both,5,5,5
309,DF5135F6DDFA093F,classic_bike,2022-06-04 17:01:51,2022-06-04 17:39:08,Dyckman St & Staff St,8655.02,Cathedral Pkwy & Broadway,7680.03,40.868846,-73.931537,40.804213,-73.96699104,member,2022-06-04,21.9,both,5,5,5
310,7401F7CCC60A64B7,classic_bike,2022-06-04 12:12:25,2022-06-04 12:46:16,Norfolk St & Broome St,5374.01,11 Ave & W 59 St,7059.01,40.7172274,-73.98802084,40.77149671054441,-73.99046033620834,member,2022-06-04,21.9,both,5,5,5
311,A93B8C287BE1434F,classic_bike,2022-06-04 18:28:21,2022-06-04 18:55:24,Graham Ave & Conselyea St,5291.05,DeKalb Ave & S Portland Ave,4546.04,40.715143,-73.944507,40.68981035,-73.97493121,casual,2022-06-04,21.9,both,5,5,5
312,B94A8536600C5032,classic_bike,2022-06-04 18:01:15,2022-06-04 18:17:24,W 26 St & 8 Ave,6297.02,E 14 St & 1 Ave,5779.1,40.74734825,-73.99723551,40.73139303364151,-73.98286700248718,member,2022-06-04,21.9,both,5,5,5
313,C9EC5079A1AF4291,electric_bike,2022-06-05 23:22:41,2022-06-06 00:02:51,West Drive & Prospect Park West,3651.04,Van Sinderen Ave & Truxton St,4161.01,40.6610633719006,-73.97945255041122,40.6786,-73.90369,casual,2022-06-05,20.0,both,4,4,4
314,CFBA29736B9E9B9B,classic_bike,2022-06-05 15:16:40,2022-06-05 15:52:57,West St & Liberty St,5184.08,W 52 St & 11 Ave,6926.01,40.711444,-74.014847,40.76727216,-73.99392888,member,2022-06-05,20.0,both,4,4,4
315,23C11ADC800A3347,classic_bike,2022-06-05 12:24:49,2022-06-05 12:40:04,W 63 St & Broadway,7052.01,W 36 St & 9 Ave,6569.07,40.77163851,-73.98261428,40.75462324029105,-73.99516761302948,member,2022-06-05,20.0,both,4,4,4
316,2384B3F52C4454A0,classic_bike,2022-06-05 19:40:52,2022-06-05 20:07:25,6 Ave & W 45 St,6593.15,Greenwich Ave & Charles St,5914.08,40.756951,-73.982631,40.735238,-74.000271,casual,2022-06-05,20.0,both,4,4,4
317,5EB11E674C8F62FB,classic_bike,2022-06-06 14:34:45,2022-06-06 14:37:55,Cadman Plaza E & Tillary St,4677.01,Court St & State St,4488.08,40.69597683,-73.99014892,40.6902375,-73.99203074,member,2022-06-06,22.2,both,5,5,5
318,FF2662DB4BEFD8D2,electric_bike,2022-06-06 13:30:12,2022-06-06 14:12:47,5 Ave & 3 St,3987.06,Hudson St & W 13 St,6115.06,40.6728155,-73.98352355,40.74005708567285,-74.0052741765976,member,2022-06-06,22.2,both,5,5,5
319,D0E9BFAC18F52B1B,classic_bike,2022-06-06 00:54:17,2022-06-06 00:59:09,5 Ave & E 29 St,6248.06,8 Ave & W 27 St,6297.07,40.7451677,-73.98683077,40.747968,-73.996637,member,2022-06-06,22.2,both,5,5,5
320,DC5DD0564EB1700B,classic_bike,2022-06-06 07:06:31,2022-06-06 07:15:11,E 5 St & Avenue C,5545.04,E 7 St & Ave B,5584.05,40.72299208,-73.97995466,40.7251285241158,-73.98131668567657,member,2022-06-06,22.2,both,5,5,5
321,5142AD4CAAB1C8C4,docked_bike,2022-06-06 10:13:51,2022-06-06 10:38:32,E 48 St & 5 Ave,6626.01,2 Ave & E 31 St,6197.02,40.757246,-73.978059,40.742909,-73.977061,casual,2022-06-06,22.2,both,5,5,5
322,0AA06212B84E6DBA,classic_bike,2022-06-07 16:06:05,2022-06-07 16:19:36,Wythe Ave & Metropolitan Ave,5348.02,Meserole Ave & Manhattan Ave,5666.04,40.716887,-73.963198,40.72708584,-73.95299117,member,2022-06-07,21.8,both,5,5,5
323,D9669CD9527F1877,classic_bike,2022-06-07 18:37:10,2022-06-07 18:54:58,Wythe Ave & Metropolitan Ave,5348.02,Willoughby Ave & Hall St,4611.03,40.716887,-73.963198,40.69196035,-73.96536851,member,2022-06-07,21.8,both,5,5,5
324,E44E21281AB6DB47,electric_bike,2022-06-07 17:08:44,2022-06-07 17:51:40,6 Ave & W 34 St,6364.1,E 4 St & Ave B,5515.08,40.74964,-73.98805,40.72334683218016,-73.98265913128853,casual,2022-06-07,21.8,both,5,5,5
325,5740665BEE2579B8,classic_bike,2022-06-07 09:16:24,2022-06-07 09:23:31,8 Ave & W 38 St,6526.05,Broadway & W 25 St,6173.08,40.75461,-73.99177,40.74286877312112,-73.98918628692627,member,2022-06-07,21.8,both,5,5,5
326,4A12115155E57E90,electric_bike,2022-06-07 12:46:56,2022-06-07 12:52:42,Lexington Ave & E 29 St,6164.09,E 33 St & 5 Ave,6322.01,40.74311555376486,-73.98215353488922,40.74765947,-73.98490707,member,2022-06-07,21.8,both,5,5,5
327,B2D335B83A4592CC,classic_bike,2022-06-08 14:08:32,2022-06-08 14:15:53,E 41 St & Madison Ave (SW corner),6474.12,8 Ave & W 33 St,6450.12,40.752165280621966,-73.97992193698882,40.751551,-73.993934,member,2022-06-08,23.7,both,5,5,5
328,7E1073225CA315FC,classic_bike,2022-06-08 18:55:02,2022-06-08 19:06:52,E 41 St & Madison Ave (SE corner),6432.1,W 44 St & 11 Ave,6756.05,40.752049,-73.979635,40.762009,-73.996975,member,2022-06-08,23.7,both,5,5,5
329,B1142D38D73CC353,electric_bike,2022-06-08 21:05:17,2022-06-08 21:14:50,Leonard St & Church St,5359.11,King St & Varick St,5687.11,40.717571,-74.005549,40.72789701409023,-74.00536268949507,member,2022-06-08,23.7,both,5,5,5
330,60732ACD52403C25,classic_bike,2022-06-08 17:27:16,2022-06-08 17:30:59,E 40 St & Park Ave,6432.11,E 33 St & 5 Ave,6322.01,40.750756,-73.978326,40.74765947,-73.98490707,member,2022-06-08,23.7,both,5,5,5
331,4D5C33E2951ECD49,classic_bike,2022-06-08 00:37:44,2022-06-08 06:38:14,Broadway & E 14 St,5905.12,Broadway & W 29 St,6289.06,40.73454567,-73.99074142,40.7462009,-73.98855723,casual,2022-06-08,23.7,both,5,5,5
332,C30449838BA7B64B,electric_bike,2022-06-09 21:57:32,2022-06-09 22:05:20,Berry St & N 8 St,5379.09,Division Ave & Hooper St,5045.05,40.7190095,-73.95852515,40.70684203101325,-73.9544353965357,member,2022-06-09,24.4,both,4,4,4
333,11EADEA8E1CAE2DC,classic_bike,2022-06-09 18:34:02,2022-06-09 18:38:02,Leonard St & Church St,5359.11,Watts St & Greenwich St,5578.02,40.717418313,-74.005172849,40.72405549,-74.00965965,member,2022-06-09,24.4,both,4,4,4
334,3D13AE10760C42AF,classic_bike,2022-06-09 14:39:14,2022-06-09 14:42:07,Devoe St & Lorimer St,5259.06,Bayard St & Leonard St,5442.05,40.71335226222875,-73.9491033554077,40.71915571696044,-73.94885390996933,casual,2022-06-09,24.4,both,4,4,4
335,AB7088A3B4A81A75,classic_bike,2022-06-09 20:48:28,2022-06-09 21:11:50,Wythe Ave & Metropolitan Ave,5348.02,Lafayette Ave & Ft Greene Pl,4470.09,40.716887,-73.963198,40.68700231292619,-73.97664964199066,member,2022-06-09,24.4,both,4,4,4
336,B29FF79528AA672F,classic_bike,2022-06-10 18:09:55,2022-06-10 18:26:44,Bedford Ave & S 9 St,5093.01,Bialystoker Pl & Delancey St,5335.03,40.70853074,-73.96408963,40.71622644,-73.98261206,casual,2022-06-10,21.8,both,2,2,2
337,529D0839C88632A4,classic_bike,2022-06-10 21:15:06,2022-06-10 21:30:29,Broadway & E 14 St,5905.12,E 33 St & 1 Ave,6197.08,40.73454567,-73.99074142,40.74322681432173,-73.97449783980846,member,2022-06-10,21.8,both,2,2,2
338,E25723C8760702AA,classic_bike,2022-06-11 12:02:41,2022-06-11 12:07:14,Broadway & W 61 St,7014.12,W 70 St & Amsterdam Ave,7207.08,40.77003010255044,-73.9819684624672,40.77748046,-73.98288594,member,2022-06-11,21.8,both,1,1,1
339,99CEEDC62C933E83,classic_bike,2022-06-12 15:47:44,2022-06-12 15:55:36,Lexington Ave & E 24 St,6089.07,8 Ave & W 27 St,6297.07,40.74025878,-73.98409214,40.747968,-73.996637,member,2022-06-12,20.5,both,3,3,3
340,159AD9174972AF71,classic_bike,2022-06-12 18:22:29,2022-06-12 18:31:48,W 20 St & 7 Ave,6182.02,W 12 St & Hudson St,5997.1,40.74238787,-73.99726235,40.73752993301071,-74.00558933615685,member,2022-06-12,20.5,both,3,3,3
341,3A536EA1A331DA75,classic_bike,2022-06-12 15:22:08,2022-06-12 15:29:13,Great Jones St,5636.11,W Broadway & Spring St,5569.06,40.72743423,-73.99379025,40.72494672359416,-74.00165855884552,member,2022-06-12,20.5,both,3,3,3
342,B8092C374B5947C4,electric_bike,2022-06-13 15:03:16,2022-06-13 15:39:37,W 31 St & 7 Ave,6331.01,E 91 St & 2 Ave,7286.01,40.749156,-73.9916,40.78115276427916,-73.94963040947914,casual,2022-06-13,24.2,both,5,5,5
343,278458D1C8C667DD,classic_bike,2022-06-13 11:12:27,2022-06-13 11:22:27,Perry St & Bleecker St,5922.07,E 16 St & 5 Ave,6022.04,40.73535398,-74.00483091,40.73726186,-73.99238967,member,2022-06-13,24.2,both,5,5,5
344,AE1C9CED48806983,classic_bike,2022-06-13 19:30:09,2022-06-13 20:00:56,West End Ave & W 94 St,7524.09,9 Ave & W 45 St,6717.06,40.7941654,-73.974124,40.76019252,-73.9912551,member,2022-06-13,24.2,both,5,5,5
345,E2FF24D5E147A701,classic_bike,2022-06-13 16:05:40,2022-06-13 16:43:49,Central Park W & W 97 St,7538.18,Central Park W & W 97 St,7538.18,40.79249519495111,-73.96417066463071,40.79249519495111,-73.96417066463071,member,2022-06-13,24.2,both,5,5,5
346,89CFCBA4492520DB,electric_bike,2022-06-13 20:49:48,2022-06-13 21:07:28,Madison St & Woodward Ave,4954.07,Scholes St & Manhattan Ave,5108.01,40.70408,-73.90408,40.70870368,-73.9448625,casual,2022-06-13,24.2,both,5,5,5
347,95EBA657DD6B9603,electric_bike,2022-06-14 20:09:59,2022-06-14 21:02:13,11 Ave & W 27 St,6425.04,E 1 St & 1 Ave,5593.01,40.751396,-74.005226,40.72335597960796,-73.98864984512329,member,2022-06-14,23.9,both,5,5,5
348,A421F1012473C957,electric_bike,2022-06-14 13:25:52,2022-06-14 13:37:54,E 138 St & Willow Ave,7654.04,St Nicholas Ave & W 134 St,7837.3,40.804168,-73.911545,40.816234,-73.948222,casual,2022-06-14,23.9,both,5,5,5
349,AE48C2B82F6E9499,classic_bike,2022-06-14 15:07:45,2022-06-14 15:25:00,E 40 St & Park Ave,6432.11,St Marks Pl & 1 Ave,5626.13,40.750756,-73.978326,40.72779126,-73.98564945,member,2022-06-14,23.9,both,5,5,5
350,2FA1221D9B64523A,classic_bike,2022-06-14 07:38:00,2022-06-14 07:53:38,E 153 St & E 157 St,8025.01,E 160 St & Tinton Ave,7931.05,40.826677,-73.929327,40.820302,-73.903944,member,2022-06-14,23.9,both,5,5,5
351,344C3AB629C2A851,electric_bike,2022-06-14 17:24:59,2022-06-14 17:35:55,Hudson St & W 13 St,6115.06,E 10 St & Avenue A,5659.05,40.74005708567285,-74.0052741765976,40.72740794,-73.98142006,member,2022-06-14,23.9,both,5,5,5
352,F30388C0F171B80E,classic_bike,2022-06-15 19:34:43,2022-06-15 19:38:35,Howard St & Lafayette St,5422.04,Bleecker St & Crosby St,5679.08,40.71910537,-73.99973337,40.72615604980408,-73.99510189890862,member,2022-06-15,23.3,both,6,6,6
353,A0E5EAC769B5FB5E,classic_bike,2022-06-15 17:29:36,2022-06-15 17:40:00,Vesey St & Church St,5216.06,South St & Pike St,5159.07,40.71221958009051,-74.01047229766846,40.70991806921533,-73.99161100387573,member,2022-06-15,23.3,both,6,6,6
354,9EA4D458901E18D9,classic_bike,2022-06-15 11:55:26,2022-06-15 12:03:11,W 13 St & 5 Ave,5947.04,Broadway & W 29 St,6289.06,40.735461116,-73.994607687,40.7462009,-73.98855723,member,2022-06-15,23.3,both,6,6,6
355,6FEFF1B4745C63AA,classic_bike,2022-06-15 06:17:25,2022-06-15 06:23:21,E 2 St & Avenue B,5515.02,E 12 St & 3 Ave,5788.12,40.72217444,-73.98368779,40.73223272,-73.98889957,member,2022-06-15,23.3,both,6,6,6
356,506FB0B93D2E245D,classic_bike,2022-06-15 16:19:01,2022-06-15 16:21:14,Broadway & E 14 St,5905.12,E 12 St & 3 Ave,5788.12,40.73454567,-73.99074142,40.73223272,-73.98889957,member,2022-06-15,23.3,both,6,6,6
357,19D5B0C24CFB8442,classic_bike,2022-06-15 14:08:29,2022-06-15 14:38:30,12 Ave & W 40 St,6765.01,12 Ave & W 125 St,7886.02,40.76087502,-74.00277668,40.818299,-73.960405,member,2022-06-15,23.3,both,6,6,6
358,43A3B8729F6AABCF,classic_bike,2022-06-16 21:45:57,2022-06-16 21:57:20,Greene Av & Myrtle Av,4784.02,Putnam Ave & Knickerbocker Ave,4663.06,40.698568,-73.918877,40.69545,-73.91164,casual,2022-06-16,20.3,both,2,2,2
359,E96E6B4E9D547F4E,classic_bike,2022-06-16 07:45:56,2022-06-16 07:50:01,9 Ave & W 22 St,6266.06,W 29 St & 9 Ave,6416.06,40.7454973,-74.00197139,40.7500727,-73.99839279,casual,2022-06-16,20.3,both,2,2,2
360,1EF522043F15A3C2,classic_bike,2022-06-17 20:09:36,2022-06-17 20:25:25,Frederick Douglass Blvd & W 115 St,7658.13,W 111 St & 5 Ave,7587.16,40.8038654,-73.9559308,40.79752078124756,-73.9489397406578,member,2022-06-17,25.2,both,5,5,5
361,6A518201FBD1444B,classic_bike,2022-06-17 20:29:15,2022-06-17 20:50:35,Margaret Corbin Plz & Ft Washington Ave,8532.03,W 186 St & St. Nicholas Ave,8416.1,40.859166,-73.933872,40.852253,-73.931308,casual,2022-06-17,25.2,both,5,5,5
362,0619B42537B591AC,classic_bike,2022-06-17 13:47:09,2022-06-17 13:49:31,Bedford Ave & S 9 St,5093.01,S 3 St & Bedford Ave,5235.05,40.70853074,-73.96408963,40.71260486,-73.96264403,member,2022-06-17,25.2,both,5,5,5
363,14B2DB57E659FCFF,classic_bike,2022-06-17 17:52:47,2022-06-17 17:59:31,Broadway & W 58 St,6948.1,Grand Army Plaza & Central Park S,6839.1,40.76695317,-73.98169333,40.7643971,-73.97371465,member,2022-06-17,25.2,both,5,5,5
364,A8E11DED04A9F6D5,classic_bike,2022-06-17 23:31:06,2022-06-17 23:52:59,Macon St & Nostrand Ave,4214.03,Bergen St & Smith St,4446.01,40.6809833854,-73.9500479759,40.6867443,-73.99063168,casual,2022-06-17,25.2,both,5,5,5
365,46EF8B46F7519427,electric_bike,2022-06-18 14:42:52,2022-06-18 15:13:59,W 87 St & Amsterdam Ave,7458.03,West St & Liberty St,5184.08,40.78839,-73.9747,40.711444,-74.014847,casual,2022-06-18,21.7,both,4,4,4
366,E5A85AC9FDAE7E0A,classic_bike,2022-06-18 15:28:53,2022-06-18 15:52:15,Barrow St & Hudson St,5805.05,Mercer St & Spring St,5532.01,40.73172428,-74.00674436,40.72362738,-73.99949601,member,2022-06-18,21.7,both,4,4,4
367,31FA013E6D778D3D,classic_bike,2022-06-18 14:49:03,2022-06-18 15:09:43,W 22 St & 10 Ave,6306.06,E 9 St & 5 Ave,5872.1,40.74691959,-74.00451887,40.73275887045087,-73.99581670761108,member,2022-06-18,21.7,both,4,4,4
368,1667B6F4BEE0DF2D,classic_bike,2022-06-18 22:46:41,2022-06-18 23:02:21,W 25 St & 6 Ave,6215.04,Lispenard St & Broadway,5391.06,40.74395411,-73.99144871,40.71939226,-74.00247214,member,2022-06-18,21.7,both,4,4,4
369,D2A1E95148F52733,classic_bike,2022-06-19 17:40:50,2022-06-19 17:49:57,Dyckman St & Staff St,8655.02,Broadway & Ellwood St,8547.04,40.868846,-73.931537,40.862058,-73.929719,member,2022-06-19,17.3,both,8,8,8
370,791FD0C3055FB01C,electric_bike,2022-06-19 13:29:25,2022-06-19 13:36:57,5 Ave & E 29 St,6248.06,W 26 St & 10 Ave,6382.05,40.7451677,-73.98683077,40.749717753,-74.002950346,member,2022-06-19,17.3,both,8,8,8
371,ADF1DD2604F1EC28,classic_bike,2022-06-19 17:05:15,2022-06-19 17:14:10,Kent Ave & Division Ave,5021.05,Nassau St & Navy St,4812.02,40.706563674670925,-73.9683187007904,40.69839895,-73.98068914,member,2022-06-19,17.3,both,8,8,8
372,19B668DC492204BE,classic_bike,2022-06-19 16:27:56,2022-06-19 16:37:36,Sands St Gate,4812.04,Dock St & Front St,4903.09,40.699569,-73.979827,40.702709,-73.99253,member,2022-06-19,17.3,both,8,8,8
373,6BBAA42B77F2AC88,classic_bike,2022-06-19 20:32:59,2022-06-19 20:45:48,Spring St & Hudson St,5653.12,Warren St & W Broadway,5288.09,40.72583996792375,-74.0076532959938,40.71473993,-74.00910627,member,2022-06-19,17.3,both,8,8,8
374,66CB65BA201A1525,classic_bike,2022-06-19 16:41:59,2022-06-19 16:57:50,Centre St & Chambers St,5207.01,Cadman Plaza E & Tillary St,4677.01,40.71273266,-74.0046073,40.69597683,-73.99014892,casual,2022-06-19,17.3,both,8,8,8
375,56D04DD1157D946A,electric_bike,2022-06-19 11:32:42,2022-06-19 11:46:08,W 42 St & 8 Ave,6602.05,Mercer St & Spring St,5532.01,40.7575699,-73.99098507,40.72362738,-73.99949601,member,2022-06-19,17.3,both,8,8,8
376,1D54B0123F74D5A9,classic_bike,2022-06-19 12:02:26,2022-06-19 12:08:24,E 22 St & 2 Ave,5971.09,E 11 St & 3 Ave,5788.16,40.73716919369882,-73.98122549057007,40.73127,-73.98849,casual,2022-06-19,17.3,both,8,8,8
377,CE6961F70FE06385,classic_bike,2022-06-20 17:50:56,2022-06-20 18:27:15,Broadway\t& W 48 St,6708.04,Liberty St & Nassau St,5105.09,40.76017739537783,-73.98486793041229,40.70858894240581,-74.00935482235809,member,2022-06-20,20.5,both,5,5,5
378,B93740F9813E429F,classic_bike,2022-06-20 14:50:36,2022-06-20 16:01:22,21 St & 4 Ave,3668.04,Water St & Main St,4936.14,40.662584,-73.995554,40.703212,-73.990409,casual,2022-06-20,20.5,both,5,5,5
379,63F7AEB875F95F39,electric_bike,2022-06-20 20:36:40,2022-06-20 20:42:24,Lafayette St & Jersey St,5561.06,Broadway & E 14 St,5905.12,40.72456089,-73.99565293,40.73454567,-73.99074142,member,2022-06-20,20.5,both,5,5,5
380,E23AF9A097586669,classic_bike,2022-06-20 09:57:49,2022-06-20 10:00:16,Stuyvesant Walk & 1 Av Loop,5854.1,1 Ave & E 18 St,5854.09,40.732339777151054,-73.97898383438587,40.73381219196632,-73.98054420948029,member,2022-06-20,20.5,both,5,5,5
381,891E68A7A6B2C84A,classic_bike,2022-06-20 10:49:10,2022-06-20 11:26:21,W 100 St & Manhattan Ave,7538.14,12 Ave & W 40 St,6765.01,40.795,-73.9645,40.76087502,-74.00277668,member,2022-06-20,20.5,both,5,5,5
382,CD0EE8CA75E2E98D,electric_bike,2022-06-21 16:23:26,2022-06-21 16:44:51,Union Ave & Wallabout St,4818.03,Lafayette Ave & Ft Greene Pl,4470.09,40.70029511,-73.95032283,40.68700231292619,-73.97664964199066,casual,2022-06-21,22.1,both,3,3,3
383,790C25B3C54B2FD2,classic_bike,2022-06-21 17:32:41,2022-06-21 17:39:51,North Moore St & Greenwich St,5470.12,Morton St & Washington St,5772.05,40.72019521437465,-74.0103006362915,40.73115,-74.00887,member,2022-06-21,22.1,both,3,3,3
384,07C9F2D8AF6E4C0B,classic_bike,2022-06-21 19:48:58,2022-06-21 20:02:41,Beaver St & Fayette St,4840.06,Driggs Ave & Lorimer St,5481.04,40.70099,-73.93921,40.72179134,-73.9504154,casual,2022-06-21,22.1,both,3,3,3
385,D3E035214274256B,classic_bike,2022-06-22 18:37:00,2022-06-22 18:50:48,W 30 St & 10 Ave,6459.07,W 52 St & 11 Ave,6926.01,40.752694,-74.002353,40.76727216,-73.99392888,member,2022-06-22,19.1,both,3,3,3
386,CCDE16E479452AA7,classic_bike,2022-06-22 19:01:36,2022-06-22 19:11:20,E 35 St & Madison Ave,6398.08,W 22 St & 8 Ave,6224.03,40.74848023448579,-73.98255586624146,40.74475148,-73.99915362,member,2022-06-22,19.1,both,3,3,3
387,753877CC60FA9387,classic_bike,2022-06-22 08:18:09,2022-06-22 08:27:17,E 10 St & Avenue A,5659.05,E 15 St & 3 Ave,5863.07,40.72740794,-73.98142006,40.734232,-73.986923,member,2022-06-22,19.1,both,3,3,3
388,8AEF2F11F6754E49,classic_bike,2022-06-23 20:03:35,2022-06-23 20:13:21,Crescent St & 34 Ave,6759.15,21 St & Hoyt Ave S,7126.01,40.76108,-73.930562,40.774645,-73.923706,member,2022-06-23,19.2,both,3,3,3
389,C7F604FA03DB6720,classic_bike,2022-06-23 08:11:17,2022-06-23 08:16:15,Riverside Dr & W 148 St,8054.04,W 133 St & 12 Ave,7925.04,40.829114,-73.950426,40.820003,-73.959089,member,2022-06-23,19.2,both,3,3,3
390,2B92EF52F8D543CF,classic_bike,2022-06-23 17:56:37,2022-06-23 18:04:25,Vesey St & Church St,5216.06,West Broadway & Watts St,5569.07,40.71221958009051,-74.01047229766846,40.72323,-74.00314,member,2022-06-23,19.2,both,3,3,3
391,635CF183D3B0BAF0,classic_bike,2022-06-24 14:20:28,2022-06-24 14:31:22,LaGuardia Pl & W 3 St,5721.14,W 20 St & 7 Ave,6182.02,40.72917025,-73.99810231,40.74238787,-73.99726235,member,2022-06-24,21.9,both,5,5,5
392,A08066A1931F5BF0,classic_bike,2022-06-24 01:27:53,2022-06-24 01:30:22,Bergen St & 4 Ave,4322.06,Sterling Pl & 5 Ave,4208.01,40.68256425759694,-73.9798977971077,40.678970070475735,-73.97855266928671,member,2022-06-24,21.9,both,5,5,5
393,8E1DAE9605D789B5,classic_bike,2022-06-24 12:05:36,2022-06-24 12:18:06,E 6 St & Avenue B,5584.04,Broadway & E 14 St,5905.12,40.72453734,-73.98185424,40.73454567,-73.99074142,member,2022-06-24,21.9,both,5,5,5
394,BEA55DAF9648321A,classic_bike,2022-06-24 19:55:38,2022-06-24 20:03:11,E 33 St & 1 Ave,6197.08,6 Ave & W 34 St,6364.1,40.74322681432173,-73.97449783980846,40.74964,-73.98805,member,2022-06-24,21.9,both,5,5,5
395,15977A3183F37DFA,classic_bike,2022-06-24 12:03:20,2022-06-24 12:13:28,E 132 St & Madison Ave,7748.02,Pleasant Ave & E 120 St,7579.01,40.810224,-73.937195,40.7974772,-73.9311847,member,2022-06-24,21.9,both,5,5,5
396,B258030EFDDA244F,classic_bike,2022-06-25 08:57:21,2022-06-25 08:59:58,Jay St & York St,4895.09,Sands St Gate,4812.04,40.701272964,-73.986704469,40.699569,-73.979827,member,2022-06-25,25.8,both,4,4,4
397,6578B0443B0E9ACD,classic_bike,2022-06-25 13:07:02,2022-06-25 13:18:18,31 St & Newtown Ave,6923.2,34 Ave & 38 St,6638.01,40.7675487799971,-73.9209334552288,40.756913,-73.921631,member,2022-06-25,25.8,both,4,4,4
398,65F5F6870D316963,classic_bike,2022-06-25 13:54:47,2022-06-25 14:03:37,E 6 St & Avenue B,5584.04,E 20 St & Park Ave,6055.08,40.72453734,-73.98185424,40.73827428,-73.98751968,member,2022-06-25,25.8,both,4,4,4
399,0CE93B2B6B79407D,classic_bike,2022-06-25 21:27:18,2022-06-25 21:53:09,Driggs Ave & N Henry St,5542.04,Flushing Ave & Woodward Ave,5225.02,40.723201036,-73.942963719,40.71246,-73.91873,member,2022-06-25,25.8,both,4,4,4
400,237491524BF69D73,electric_bike,2022-06-26 15:25:37,2022-06-26 15:40:48,8 Ave & W 49 St,6747.07,E 63 St & 3 Ave,6830.02,40.76171227910671,-73.98655101656914,40.763954,-73.9646,member,2022-06-26,27.0,both,11,11,11
401,FEFA51B0BE2D0DDB,classic_bike,2022-06-26 12:55:32,2022-06-26 12:59:08,W 107 St & Columbus Ave,7619.05,W 100 St & Manhattan Ave,7538.14,40.7997568,-73.9621128676,40.795,-73.9645,member,2022-06-26,27.0,both,11,11,11
402,7CFC67C8C7B47DEA,classic_bike,2022-06-26 20:17:24,2022-06-26 20:29:37,W 35 St & 9 Ave,6569.09,W 16 St & The High Line,6233.05,40.75414519263519,-73.9960889518261,40.74334935,-74.00681753,casual,2022-06-26,27.0,both,11,11,11
403,C79F65E219AB41F0,classic_bike,2022-06-26 10:36:12,2022-06-26 10:36:59,Centre St & Worth St,5279.03,Centre St & Worth St,5279.03,40.71494807,-74.00234482,40.71494807,-74.00234482,member,2022-06-26,27.0,both,11,11,11
404,2EC2366492532083,classic_bike,2022-06-26 16:39:24,2022-06-26 16:46:53,Myrtle Ave & Lewis Ave,4729.01,Humboldt St & Varet St,4956.02,40.69681963,-73.93756926,40.7031724,-73.940636,member,2022-06-26,27.0,both,11,11,11
405,5985B04472D89291,classic_bike,2022-06-26 19:02:42,2022-06-26 19:25:19,E 39 St & 2 Ave,6345.08,5 Ave & E 78 St,7161.08,40.74803319428767,-73.973827958107,40.77632142182271,-73.96427392959595,member,2022-06-26,27.0,both,11,11,11
406,A6E95A56C4F8F7E8,classic_bike,2022-06-26 08:10:01,2022-06-26 08:13:52,Clark St & Henry St,4789.03,Johnson St & Gold St,4668.08,40.69760127,-73.99344559,40.69474881,-73.98362464,member,2022-06-26,27.0,both,11,11,11
407,C3E37B225E4F894F,classic_bike,2022-06-26 01:25:35,2022-06-26 01:40:18,Spring St & Hudson St,5653.12,E 6 St & Avenue D,5506.14,40.72583996792375,-74.0076532959938,40.72228087,-73.97668709,member,2022-06-26,27.0,both,11,11,11
408,0C6A2A9234E7DB6E,classic_bike,2022-06-26 17:43:09,2022-06-26 17:49:23,Congress St & Clinton St,4455.1,Carroll St & Smith St,4225.14,40.68825516598005,-73.99545192718506,40.680611,-73.99475825,member,2022-06-26,27.0,both,11,11,11
409,F6E2F42220911320,electric_bike,2022-06-26 11:18:05,2022-06-26 11:27:51,E 20 St & FDR Dr,5886.13,E 5 St & Cooper Sq,5712.12,40.733208626522426,-73.9756813647,40.72769,-73.990993,casual,2022-06-26,27.0,both,11,11,11
410,A85F66E24F0D8EF4,classic_bike,2022-06-26 00:08:12,2022-06-26 00:13:10,Stanton St & Norfolk St,5445.07,Clinton St & Grand St,5303.06,40.720747,-73.986274,40.71559509,-73.9870295,member,2022-06-26,27.0,both,11,11,11
411,D1B5E1220C639B62,classic_bike,2022-06-27 13:03:48,2022-06-27 13:11:45,7 Ave & Central Park South,6912.01,E 58 St & 3 Ave,6762.02,40.7667405590595,-73.9790689945221,40.76095756,-73.96724467,member,2022-06-27,24.3,both,2,2,2
412,5826623997E34C32,electric_bike,2022-06-27 14:57:07,2022-06-27 14:57:18,Fulton St & William St,5137.11,Fulton St & William St,5137.11,40.70960089363537,-74.00655090808868,40.70960089363537,-74.00655090808868,member,2022-06-27,24.3,both,2,2,2
413,3734CB509211DD61,electric_bike,2022-06-28 14:13:35,2022-06-28 14:17:19,E 50 St & Park Ave,6659.1,E 54 St & 1 Ave,6608.09,40.757334,-73.974235,40.756265,-73.964179,member,2022-06-28,22.4,both,3,3,3
414,8EF5A276E558260F,classic_bike,2022-06-28 19:29:06,2022-06-28 19:59:44,Henry St & Degraw St,4380.08,Brooklyn Bridge Park - Pier 2,4756.04,40.6847514,-73.99917254,40.698458,-73.997178,member,2022-06-28,22.4,both,3,3,3
415,1CA9E78A43C6C372,electric_bike,2022-06-28 20:47:23,2022-06-28 20:50:29,St Marks Pl & 2 Ave,5669.1,Great Jones St,5636.11,40.7284186,-73.98713956,40.72743423,-73.99379025,member,2022-06-28,22.4,both,3,3,3
416,456B6E934E26FF36,electric_bike,2022-06-29 09:42:08,2022-06-29 09:50:16,W 35 St & Dyer Ave,6569.08,5 Ave & E 29 St,6248.06,40.754691750226016,-73.99740189313889,40.7451677,-73.98683077,member,2022-06-29,23.9,both,3,3,3
417,D44409643C021D5B,classic_bike,2022-06-29 09:17:11,2022-06-29 09:26:03,Duffield St & Willoughby St,4596.05,Jay St & York St,4895.09,40.69221589,-73.9842844,40.70140317257725,-73.98672670125961,member,2022-06-29,23.9,both,3,3,3
418,E76BEA4540EDD44C,classic_bike,2022-06-29 20:55:08,2022-06-29 21:00:01,31 Ave & 34 St,6819.15,31 Ave & 14 St,6966.04,40.763154,-73.920827,40.7682,-73.9322662,casual,2022-06-29,23.9,both,3,3,3
419,B3E6503E01FEECE6,classic_bike,2022-06-30 19:56:20,2022-06-30 20:09:26,E 11 St & 1 Ave,5746.14,W 31 St & 7 Ave,6331.01,40.72953837,-73.98426726,40.749156,-73.9916,casual,2022-06-30,25.4,both,4,4,4
420,CAB0E66E552C0C9B,electric_bike,2022-06-30 23:03:55,2022-06-30 23:12:44,E 51 St & 2 Ave,6575.03,Broadway & W 37 St,6441.02,40.755293,-73.967641,40.75172632,-73.98753523,member,2022-06-30,25.4,both,4,4,4
421,79D552D69D41C74A,electric_bike,2022-06-30 14:41:30,2022-06-30 14:43:45,Grand St & Samuel Dickstein Plaza,5335.07,E 2 St & Avenue C,5476.03,40.71511871996496,-73.98417055606842,40.7208736,-73.98085795,member,2022-06-30,25.4,both,4,4,4
422,0C9C5A6B7180FFF2,classic_bike,2022-06-30 09:49:59,2022-06-30 09:55:50,6 St & 7 Ave,3834.1,Carroll St & 6 Ave,4019.06,40.6686627,-73.97988067,40.6740886,-73.9787282,member,2022-06-30,25.4,both,4,4,4
423,0A7C7A04298D5323,classic_bike,2022-07-01 08:38:05,2022-07-01 08:42:46,E 45 St & 3 Ave,6464.08,W 44 St & 5 Ave,6551.02,40.75255434,-73.97282625,40.75500254,-73.98014437,casual,2022-07-01,28.1,both,1,1,1
424,5550206715B76593,classic_bike,2022-07-02 18:46:58,2022-07-02 19:08:17,W 37 St & 10 Ave,6611.02,Carmine St & 6 Ave,5763.03,40.75660359,-73.9979009,40.73038599,-74.00214988,member,2022-07-02,28.7,both,2,2,2
425,79DE73DFA1222B00,classic_bike,2022-07-02 14:59:41,2022-07-02 15:04:24,W 46 St & 11 Ave,6795.01,12 Ave & W 40 St,6765.01,40.76341379,-73.99667444,40.76087502,-74.00277668,member,2022-07-02,28.7,both,2,2,2
426,6D0A224771C0AEDC,classic_bike,2022-07-03 03:29:27,2022-07-03 03:42:46,Jefferson St & Cypress Ave,5082.08,Wilson Ave & Troutman St,4864.09,40.70907,-73.92157,40.70166,-73.92754,member,2022-07-03,26.9,both,5,5,5
427,C79336B785E0B3C2,classic_bike,2022-07-03 15:31:23,2022-07-03 15:40:45,MacDougal St & Washington Sq,5797.01,W 31 St & 7 Ave,6331.01,40.732346296,-73.998574972,40.749156,-73.9916,member,2022-07-03,26.9,both,5,5,5
428,DAD848AAA8507592,classic_bike,2022-07-03 11:36:18,2022-07-03 11:43:46,8 Ave & W 38 St,6526.05,12 Ave & W 40 St,6765.01,40.754331231,-73.99195683,40.76087502,-74.00277668,member,2022-07-03,26.9,both,5,5,5
429,91BADFDCF2D4BB20,classic_bike,2022-07-03 00:39:00,2022-07-03 00:46:10,Stanton St & Chrystie St,5523.02,Canal St & Rutgers St,5303.08,40.72229346,-73.99147535,40.71427487,-73.98990025,member,2022-07-03,26.9,both,5,5,5
430,54FCDD0AF055E5A4,classic_bike,2022-07-03 18:28:04,2022-07-03 18:36:32,E 58 St & 1 Ave (NW Corner),6723.1,3 Ave & E 71 St,6960.1,40.759125,-73.962658,40.76873687,-73.96119945,member,2022-07-03,26.9,both,5,5,5
431,CC35AE6E57EED85D,classic_bike,2022-07-04 10:27:55,2022-07-04 10:39:59,1 Ave & E 16 St,5779.08,Broadway & E 19 St,6098.12,40.73221853,-73.98165557,40.73866091428551,-73.98987293243407,casual,2022-07-04,25.6,both,5,5,5
432,77C313AE8C960F34,electric_bike,2022-07-04 12:05:12,2022-07-04 12:24:27,W 30 St & 10 Ave,6459.07,Riverside Blvd & W 67 St,7183.03,40.752694,-74.002353,40.777507027547976,-73.98888587951659,casual,2022-07-04,25.6,both,5,5,5
433,2AF361DE498CF9DD,classic_bike,2022-07-04 20:01:30,2022-07-04 20:28:12,MacDougal St & Prince St,5687.04,MacDougal St & Prince St,5687.04,40.72710258,-74.00297088,40.72710258,-74.00297088,casual,2022-07-04,25.6,both,5,5,5
434,D44552949DA9E5C4,classic_bike,2022-07-04 09:34:34,2022-07-04 09:57:37,W 47 St & 10 Ave,6824.07,Stanton St & Chrystie St,5523.02,40.76269882,-73.99301222,40.72229346,-73.99147535,member,2022-07-04,25.6,both,5,5,5
435,D0BF6BB8E15502A9,classic_bike,2022-07-04 12:18:41,2022-07-04 12:59:58,Richards St & Delavan St,4202.04,E 55 St & 2 Ave,6650.07,40.6794327,-74.00785041,40.75797322,-73.96603308,member,2022-07-04,25.6,both,5,5,5
436,13E0F9601F183416,classic_bike,2022-07-05 19:12:37,2022-07-05 19:22:00,Broadway & W 58 St,6948.1,W 63 St & Broadway,7052.01,40.76695317,-73.98169333,40.77163851,-73.98261428,member,2022-07-05,25.9,both,3,3,3
437,1C9234C8FEE719CE,electric_bike,2022-07-05 14:31:18,2022-07-05 14:49:00,Franklin Ave & Myrtle Ave,4715.01,Grand St & Samuel Dickstein Plaza,5335.07,40.694546087246025,-73.95801365375519,40.71511871996496,-73.98417055606842,casual,2022-07-05,25.9,both,3,3,3
438,00F5FF90735B31C5,electric_bike,2022-07-05 23:46:16,2022-07-05 23:56:16,E 6 St & Avenue D,5506.14,Market St & Cherry St,5198.04,40.72228087,-73.97668709,40.71076228,-73.99400398,casual,2022-07-05,25.9,both,3,3,3
439,6CCA2F300E656A18,classic_bike,2022-07-06 16:52:46,2022-07-06 17:06:52,E 47 St & 2 Ave,6498.1,E 23 St & 1 Ave,5929.01,40.75323098,-73.97032517,40.736502,-73.97809472,member,2022-07-06,26.0,both,4,4,4
440,03A2388D1B2D4F48,classic_bike,2022-07-06 08:40:47,2022-07-06 08:49:53,W 42 St & Dyer Ave,6644.07,E 33 St & 5 Ave,6322.01,40.75898481399634,-73.99379968643188,40.74765947,-73.98490707,casual,2022-07-06,26.0,both,4,4,4
441,F957E4F719F029DC,classic_bike,2022-07-06 09:43:16,2022-07-06 09:49:48,E 13 St & 2 Ave,5820.08,Perry St & Greenwich Ave,5955.12,40.73153937464073,-73.9853024482727,40.735918,-74.000939,member,2022-07-06,26.0,both,4,4,4
442,74FEE6DDD52A3075,classic_bike,2022-07-06 06:23:36,2022-07-06 06:33:02,W 45 St & 8 Ave,6676.02,Grand Army Plaza & Central Park S,6839.1,40.75929124,-73.98859651,40.7643971,-73.97371465,member,2022-07-06,26.0,both,4,4,4
443,074BB7B6A00562AC,classic_bike,2022-07-07 13:22:30,2022-07-07 14:34:53,Grand Army Plaza & Central Park S,6839.1,W 44 St & 5 Ave,6551.02,40.7643971,-73.97371465,40.75500254,-73.98014437,casual,2022-07-07,24.2,both,2,2,2
444,88ABE5ADC8D7A45C,electric_bike,2022-07-07 17:51:34,2022-07-07 18:03:10,5 Ave & W 126 St,7701.21,Lincoln Ave & E 138 St,7744.06,40.80722,-73.9418,40.810893,-73.927311,member,2022-07-07,24.2,both,2,2,2
445,62896256EC8E62CF,electric_bike,2022-07-08 14:51:38,2022-07-08 14:58:13,E 81 St & 3 Ave,7154.07,5 Ave & E 72 St,7100.07,40.77573034,-73.9567526,40.77282817,-73.96685276,member,2022-07-08,23.5,both,3,3,3
446,A1243DAED2A67A36,electric_bike,2022-07-08 15:44:28,2022-07-08 15:53:37,E 80 St & 2 Ave,7121.02,Madison Ave & E 99 St,7443.01,40.77391390238118,-73.9543953537941,40.78948541553215,-73.95242929458618,member,2022-07-08,23.5,both,3,3,3
447,F9FEB40CC14A633A,electric_bike,2022-07-08 08:20:55,2022-07-08 08:26:14,Plaza St West & Flatbush Ave,4010.13,Prospect Park West & 8 St,3722.04,40.6750207,-73.97111473,40.66514681533792,-73.97637605667114,member,2022-07-08,23.5,both,3,3,3
448,5FF32C50C8D0471C,classic_bike,2022-07-09 20:17:13,2022-07-09 20:26:27,E 2 St & Avenue C,5476.03,LaGuardia Pl & W 3 St,5721.14,40.7208736,-73.98085795,40.72917025,-73.99810231,member,2022-07-09,24.7,both,6,6,6
449,02C9A9882FB38F09,classic_bike,2022-07-09 11:29:08,2022-07-09 11:54:40,Pier 40 - Hudson River Park,5696.03,W 36 St & 9 Ave,6569.07,40.7277140777778,-74.01129573583603,40.75462324029105,-73.99516761302948,casual,2022-07-09,24.7,both,6,6,6
450,869BB57DFB95E279,classic_bike,2022-07-09 20:22:54,2022-07-09 20:36:06,Mott St & Prince St,5561.04,Forsyth St\t& Grand St,5382.07,40.72317958,-73.99480012,40.71779817737835,-73.99316132068634,member,2022-07-09,24.7,both,6,6,6
451,F2C1127B5E096DE9,classic_bike,2022-07-09 21:43:46,2022-07-09 22:09:54,Greenwich Ave & Charles St,5914.08,1 Ave & E 6 St,5626.15,40.735238,-74.000271,40.72633085971696,-73.98616880178452,member,2022-07-09,24.7,both,6,6,6
452,5C4C75BB762FD1F6,electric_bike,2022-07-09 11:52:19,2022-07-09 12:13:03,Riverside Dr & W 78 St,7340.06,W 22 St & 8 Ave,6224.03,40.78414472,-73.98362492,40.74475148,-73.99915362,member,2022-07-09,24.7,both,6,6,6
453,5935AA43F0A1BFC0,classic_bike,2022-07-09 11:53:59,2022-07-09 11:56:02,River Ave & E 151 St,7967.04,E 150 St & Gerard Ave,7906.13,40.821948171,-73.929050446,40.820089,-73.928947,member,2022-07-09,24.7,both,6,6,6
454,84B06DC934696EEB,classic_bike,2022-07-10 15:05:00,2022-07-10 15:19:14,Liberty St & Nassau St,5105.09,West Thames St,5114.06,40.70858894240581,-74.00935482235809,40.70834698,-74.01713445,member,2022-07-10,23.4,both,2,2,2
455,AB24E230EA4EB985,classic_bike,2022-07-10 18:22:43,2022-07-10 19:15:05,8 Ave & W 33 St,6450.12,W 163 St & Riverside Dr,8210.01,40.751551,-73.993934,40.839278,-73.945446,member,2022-07-10,23.4,both,2,2,2
456,8B53F7F4BDDD0B78,classic_bike,2022-07-11 17:35:15,2022-07-11 17:47:11,W 34 St & 11 Ave,6578.01,Pier 40 - Hudson River Park,5696.03,40.75594159,-74.0021163,40.7277140777778,-74.01129573583603,member,2022-07-11,24.0,both,5,5,5
